[{"id":43000452,"name":"ESC ENS MEDIO CESI ZONA SUL","address":"RUA JOSE BRAULIO DA FONSECA, 44 ESCOLA. ABERTA DOS MORROS. 91787-895 Porto Alegre - RS.","phone":"(51) 33461880","category":2,"latitude":-30.16047,"longitude":-51.18704},{"id":43000479,"name":"E E IND ENS FUN TUPE PAN","address":"R PADRE WERNER S\/INF COMUNIDADE, S\/INF COMUNIDADE. TRISTEZA. 91920-770 Porto Alegre - RS.","phone":null,"category":1,"latitude":"NA","longitude":"NA"},{"id":43001254,"name":"E E IND ENS FUN PINDO POTY","address":"ETR VAREJAO 217, 217 LAMI. 91787-170 Porto Alegre - RS.","phone":null,"category":1,"latitude":-30.22072,"longitude":-51.09536},{"id":43001831,"name":"EEI PEIXINHOS DO MAR","address":"RUA FRANCISCO PINTO DA FONTOURA, 585 SARANDI. 91110-310 Porto Alegre - RS.","phone":"(51) 992456303","category":2,"latitude":-30.00716,"longitude":-51.10934},{"id":43001840,"name":"ESCOLA INFANTIL ARCO IRIS","address":"AVENIDA JUCA BATISTA, 21 IPANEMA. 91760-140 Porto Alegre - RS.","phone":"(51) 32461555","category":2,"latitude":-30.1271165,"longitude":-51.2373036},{"id":43001858,"name":"EEI AQUARELA DO SABER","address":"RUA MAESTRO MENDANHA, 240 SANTANA. 90620-160 Porto Alegre - RS.","phone":"(51) 32194336","category":2,"latitude":-30.04889,"longitude":-51.20554},{"id":43001874,"name":"EEI ABC DA INFANCIA","address":"RUA FREDERICO ETZBERGER, 301 NONOAI. 91720-510 Porto Alegre - RS.","phone":"(51) 30290905","category":2,"latitude":"NA","longitude":"NA"},{"id":43001882,"name":"EEI KANGURU FELIZ","address":"RUA LUZITANA, 483 HIGIENOPOLIS. 90520-080 Porto Alegre - RS.","phone":"(51) 30137362","category":2,"latitude":-30.01259,"longitude":-51.18436},{"id":43001912,"name":"VILLA KIDS","address":"RUA REGENTE, 176 PETROPOLIS. 90470-170 Porto Alegre - RS.","phone":"(51) 30194019","category":2,"latitude":-30.0311,"longitude":-51.18156},{"id":43001971,"name":"IEI CRECHE DO CORACAO","address":"RUA RIO MARIA, 207 CASCATA. 91712-270 Porto Alegre - RS.","phone":"(51) 33545892","category":2,"latitude":-30.09194,"longitude":-51.1752},{"id":43001980,"name":"EEI TURMA DA MAGALI","address":"ADAO PRETTO, 4967 LOMBA DO PINHEIRO. 91570-735 Porto Alegre - RS.","phone":"(51) 33363767","category":2,"latitude":"NA","longitude":"NA"},{"id":43001998,"name":"EEI PEQUENOS BRILHANTES","address":"AVENIDA BALTAZAR DE OLIVEIRA GARCIA, 4660 FUNDOS LATERAL. RUBEM BERTA. 91180-000 Porto Alegre - RS.","phone":"(51) 33657890","category":2,"latitude":-30.01355,"longitude":-51.09916},{"id":43002021,"name":"INST EDUC INF BILINGUE UP KIDS SCHOOL","address":"ALAMEDA EMILIO DE MENEZES, 100 TRES FIGUEIRAS. 91340-360 Porto Alegre - RS.","phone":"(51) 33287118","category":2,"latitude":-30.02981,"longitude":-51.17807},{"id":43002030,"name":"EEI CAMBALHOTA","address":"AVENIDA BENTO GONCALVES, 934 SANTANA. 90610-250 Porto Alegre - RS.","phone":"(51) 33985458","category":2,"latitude":-30.05208,"longitude":-51.20386},{"id":43002064,"name":"EEI GENTE MIUDA","address":"AVENIDA BENNO MENTZ, 215 VILA IPIRANGA. 91370-020 Porto Alegre - RS.","phone":"(51) 33666812","category":2,"latitude":-30.0124666,"longitude":-51.1480022},{"id":43002188,"name":"EEI SOBRADINHO ALEGRE","address":"AVENIDA CORONEL LUCAS DE OLIVEIRA, 1927 PETROPOLIS. 90460-001 Porto Alegre - RS.","phone":"(51) 33884807","category":2,"latitude":-30.03969,"longitude":-51.1946},{"id":43002200,"name":"EEI PAMPEANO","address":"RUA PEDRO IVO, 88 MONT SERRAT. 90450-210 Porto Alegre - RS.","phone":"(51) 30192528","category":2,"latitude":-30.0293,"longitude":-51.19355},{"id":43002218,"name":"EEI FILHOS DA PROMESSA","address":"RUA SILVEIRO, 841 MENINO DEUS. 90850-170 Porto Alegre - RS.","phone":"(51) 37791140","category":2,"latitude":-30.06071,"longitude":-51.22837},{"id":43002269,"name":"EEI MUNDO MAGICO DA ALEGRIA","address":"RUA CIRINO PRUNES, 292 ESPIRITO SANTO. 91770-210 Porto Alegre - RS.","phone":"(51) 32632094","category":2,"latitude":-30.14776,"longitude":-51.2123},{"id":43004229,"name":"EEI ALEGRIA DE CRIANCA","address":"AV ALCIDES MAIA, 259 SARANDI. 91130-700 Porto Alegre - RS.","phone":"(51) 984205906","category":2,"latitude":-29.99644,"longitude":-51.12831},{"id":43004245,"name":"EEI TURMINHA DO PUFF","address":"RUA PADRE ROQUE GONZALES, 474 LOMBA DO PINHEIRO. 91570-170 Porto Alegre - RS.","phone":"(51) 33546622","category":2,"latitude":-30.11369,"longitude":-51.10212},{"id":43004261,"name":"EEI SO BEBE","address":"RUA JAGUARI, 582 CRISTAL. 90820-180 Porto Alegre - RS.","phone":"(51) 32662518","category":2,"latitude":"NA","longitude":"NA"},{"id":43004288,"name":"EEI ECOVILLE KIDS","address":"AVENIDA ECOVILLE, 845 SARANDI. 91150-401 Porto Alegre - RS.","phone":"(51) 33442918","category":2,"latitude":-30.00143,"longitude":-51.12349},{"id":43004296,"name":"EEI CRIARTE","address":"RUA ROQUE CALAGE, 755 PASSO DA AREIA. 91350-090 Porto Alegre - RS.","phone":"(51) 30619895","category":2,"latitude":-30.01839,"longitude":-51.16315},{"id":43004300,"name":"EEI IGORZINHO","address":"RUA HONORATO TONIOLO, 106 HIPICA. 91755-100 Porto Alegre - RS.","phone":"(51) 32641066","category":2,"latitude":-30.1577,"longitude":-51.19768},{"id":43004318,"name":"5218 IEI CARLOS ALBERTO TEJERA DE RE","address":"AV ENG LUDOLFO BOEHL, 1402 CASCATA. 91720-150 Porto Alegre - RS.","phone":"(51) 33157944","category":2,"latitude":-30.0838606,"longitude":-51.2005545},{"id":43004334,"name":"5217 EEI EDUARDA PUJOL ZANIRATTI","address":"AV ECON NILO WULFF, 929 RESTINGA. 91790-000 Porto Alegre - RS.","phone":"(51) 30223551","category":2,"latitude":-30.1504733,"longitude":-51.145228},{"id":43004342,"name":"5211 EEI JARDIM DO FUTURO","address":"RUA DA COMUNIDADE, 16 LOMBA DO PINHEIRO. 91560-550 Porto Alegre - RS.","phone":"(51) 33222359","category":2,"latitude":-30.1254365,"longitude":-51.1075524},{"id":43004350,"name":"5210 IEI EREMI","address":"R PAULINO AZURENHA, 445 PARTENON. 90680-240 Porto Alegre - RS.","phone":"(51) 33526705","category":2,"latitude":-30.0660083,"longitude":-51.1938636},{"id":43004369,"name":"5208 IEI VITORIA","address":"AV A J RENNER, 773 HUMAITA. 90245-000 Porto Alegre - RS.","phone":"(51) 981928381","category":2,"latitude":-29.9888897,"longitude":-51.1948354},{"id":43004377,"name":"EEI COLIBRI","address":"AVENIDA ENGENHEIRO ALFREDO CORREA DAUDT, 300 BOA VISTA. 90480-120 Porto Alegre - RS.","phone":"(51) 35161300","category":2,"latitude":-30.0225,"longitude":-51.17941},{"id":43004385,"name":"EEI BANANA NANIKA","address":"AVENIDA PROTASIO ALVES, 2820 RIO BRANCO. 90410-000 Porto Alegre - RS.","phone":"(51) 30624149","category":2,"latitude":-30.04281,"longitude":-51.18099},{"id":43004407,"name":"EEI MUNDO DO SABER","address":"AVENIDA EDGAR PIRES DE CASTRO, 242 ABERTA DOS MORROS. 91787-152 Porto Alegre - RS.","phone":"(51) 30224932","category":2,"latitude":"NA","longitude":"NA"},{"id":43004415,"name":"EEI CANTINHO DO SABER","address":"AVENIDA SAO SEBASTIAO, 57 NONOAI. 90830-420 Porto Alegre - RS.","phone":"(51) 32791001","category":2,"latitude":-30.09168,"longitude":-51.22279},{"id":43004423,"name":"INSTITUTO EDUCACIONAL REVERENDO OLAVO NUNES","address":"RUA 25 DE JULHO N\u00ba 437, SAO JOAO. 91031-970 Porto Alegre - RS.","phone":"(51) 33252477","category":2,"latitude":-30.00418,"longitude":-51.18247},{"id":43004610,"name":"5207 IEI PE DE MOLEQUE","address":"R MARIA PAULA LEAL, 200 FARRAPOS. 90250-617 Porto Alegre - RS.","phone":"(51) 33621265","category":2,"latitude":-29.983338,"longitude":-51.1997823},{"id":43004679,"name":"EEI PEQUENO APRENDIZ","address":"RUA VITOR HUGO, 25 PETROPOLIS. 90630-070 Porto Alegre - RS.","phone":"(51) 30126225","category":2,"latitude":-30.0436006,"longitude":-51.1884704},{"id":43004687,"name":"EEI SONHO DE CRIANCA","address":"PRACA ALBERTO RAMOS, 852 HIGIENOPOLIS. 90520-050 Porto Alegre - RS.","phone":"(51) 33929272","category":2,"latitude":-30.02105,"longitude":-51.18278},{"id":43004709,"name":"EEI JOAO E MARIA","address":"RUA SAPE, 575 JARDIM IPIRANGA. 91350-050 Porto Alegre - RS.","phone":"(51) 33412486","category":2,"latitude":-30.01693,"longitude":-51.1576},{"id":43004733,"name":"EEI ANJINHOS TRAVESSOS","address":"RUA LIBERAL, 3187 CAVALHADA. 91920-682 Porto Alegre - RS.","phone":"(51) 35196048","category":2,"latitude":-30.09775,"longitude":-51.23232},{"id":43004741,"name":"KINDERHOUSE ESCOLA DE EDUCACAO INFANTIL LTDA - ME","address":"RUA PEDRO WEINGARTNER, 147 RIO BRANCO. 90430-140 Porto Alegre - RS.","phone":"(51) 30622040","category":2,"latitude":-30.0298,"longitude":-51.19944},{"id":43004750,"name":"EEI LAPIS DE COR","address":"AVENIDA PERNAMBUCO, NAVEGANTES. 90240-001 Porto Alegre - RS.","phone":"(51) 32641873","category":2,"latitude":-30.02766,"longitude":-51.21645},{"id":43004768,"name":"ESCOLA DE EDUCACAO INFANTIL MUNDO","address":"RUA BARBEDO, 584 MENINO DEUS. 90110-260 Porto Alegre - RS.","phone":"(51) 35743353","category":2,"latitude":-30.05744,"longitude":-51.22498},{"id":43004784,"name":"EEI SITIO DO PICA PAU AMARELO","address":"RUA GOMES DE FREITAS, 330 JARDIM ITU SABARA. 91380-330 Porto Alegre - RS.","phone":"(51) 33487504","category":2,"latitude":-30.01019,"longitude":-51.13866},{"id":43004814,"name":"EEI ARTE E CIA","address":"RUA NUNES, 494 MEDIANEIRA. 90870-390 Porto Alegre - RS.","phone":"(51) 33851321","category":2,"latitude":"NA","longitude":"NA"},{"id":43004822,"name":"5205 IEI OSICOM IV - NOSSA SENHORA DA SALETE","address":"R PARLAMENTO, 215 MORRO SANTANA. 91450-370 Porto Alegre - RS.","phone":"(51) 33388701","category":2,"latitude":-30.0419296,"longitude":-51.1208081},{"id":43004830,"name":"5209 IEI ACOMPAR V - LUISA CASAGRANDE LEWANDOWSKI","address":"R DR MEER MARIO KAUFMANN, 336 STA ROSA LIMA. 91160-270 Porto Alegre - RS.","phone":"(51) 33670045","category":2,"latitude":-30.0013348,"longitude":-51.1048818},{"id":43004857,"name":"EEI CATIVAR","address":"AVENIDA DOM CLAUDIO JOSE GONCALVES PONCE DE LEAO, 376 VILA IPIRANGA. 91370-170 Porto Alegre - RS.","phone":"(51) 35570591","category":2,"latitude":-30.01386,"longitude":-51.14627},{"id":43004865,"name":"INST EDUC INF ABCB CRIANCA PAZ E BEM","address":"RUA J, 140 VILA NOVA IPANEMA. HIPICA. 91755-450 Porto Alegre - RS.","phone":"(51) 32332691","category":2,"latitude":-30.15227,"longitude":-51.20328},{"id":43004873,"name":"INST EDUC INF ABCB SAO FRANCISCO","address":"ESTRADA RETIRO DA PONTA GROSSA, 1701 PONTA GROSSA. 91780-590 Porto Alegre - RS.","phone":"(51) 32332691","category":2,"latitude":"NA","longitude":"NA"},{"id":43004881,"name":"EEI CANTINHO DO CEU","address":"AVENIDA ANTONIO CARVALHO, 1451 AGRONOMIA. 91430-001 Porto Alegre - RS.","phone":"(51) 33688306","category":2,"latitude":-30.05673,"longitude":-51.14759},{"id":43004890,"name":"EEI AMORMEUZINHO","address":"RUA CORONEL FERNANDO MACHADO, 513 CENTRO HISTORICO. 90010-321 Porto Alegre - RS.","phone":"(51) 32265390","category":2,"latitude":-30.03508,"longitude":-51.23285},{"id":43005020,"name":"EEI GENTE PEQUENA","address":"RUA SAICA, 61 PETROPOLIS. 90670-110 Porto Alegre - RS.","phone":"(51) 30247388","category":2,"latitude":-30.04677,"longitude":-51.18297},{"id":43005047,"name":"E E IND ENS FUN KA AGUY MIRI","address":"ETR JOSE CARDOSO DA COSTA S\/N, S\/N LAMI. 91787-610 Porto Alegre - RS.","phone":null,"category":1,"latitude":"NA","longitude":"NA"},{"id":43005055,"name":"ESC ENS FUND WALDORF QUERENCIA","address":"RUA JOSE KANAN ARANHA, 140 IPANEMA. 91760-470 Porto Alegre - RS.","phone":"(51) 32660150","category":2,"latitude":-30.12711,"longitude":-51.23822},{"id":43006744,"name":"EEI AMIGUINHOS DO CRISTAL","address":"RUA INHANDUI, 421 CRISTAL. 90820-170 Porto Alegre - RS.","phone":"(51) 30135012","category":2,"latitude":"NA","longitude":"NA"},{"id":43006752,"name":"EEI GERACAO CRIANCA","address":"PRACA ALBERTO RAMOS, 906 HIGIENOPOLIS. 90520-050 Porto Alegre - RS.","phone":"(51) 33379534","category":2,"latitude":-30.02059,"longitude":-51.18233},{"id":43006787,"name":"EEI CONTO DE FADAS","address":"RUA NERO JOSE DA SILVA FILHO, 285 PARTENON. 91530-570 Porto Alegre - RS.","phone":"(51) 32791850","category":2,"latitude":"NA","longitude":"NA"},{"id":43006795,"name":"EEI CARROSSEL","address":"RUA VIEIRA DE CASTRO, 250 FARROUPILHA. 90040-320 Porto Alegre - RS.","phone":"(51) 33301694","category":2,"latitude":-30.03995,"longitude":-51.21136},{"id":43006809,"name":"EEI EDUCARE II","address":"RUA VITORIO FRANCISCO GIORDANI, 95 JARDIM ITU SABARA. 91220-490 Porto Alegre - RS.","phone":"(51) 33486270","category":2,"latitude":-30.01104,"longitude":-51.13335},{"id":43006817,"name":"5212 EEI RECANTO DOS PEQUENINOS","address":"R STEFAN HERMANN, 4 PONTA GROSSA. 91780-598 Porto Alegre - RS.","phone":"(51) 32686068","category":2,"latitude":-30.1848141,"longitude":-51.1923226},{"id":43006825,"name":"5220 IEI CANTINHO DO SOL","address":"RUA PEDRO RAIMUNDO, 179 CHAPEU DO SOL. 91787-029 Porto Alegre - RS.","phone":"(51) 32644316","category":2,"latitude":-30.1764993,"longitude":-51.1746005},{"id":43006833,"name":"5221 EEI ANA MALTZ KNIJNIK","address":"ESTR CRISTIANO KRAEMER, 1078 VILA NOVA. 91750-062 Porto Alegre - RS.","phone":"(51) 32660635","category":2,"latitude":-30.1255537,"longitude":-51.2021869},{"id":43006841,"name":"5222 IEI PRISMA","address":"R PRISMA, 203 SANTA TEREZA. 90840-130 Porto Alegre - RS.","phone":"(51) 32332428","category":2,"latitude":-30.0779924,"longitude":-51.2308604},{"id":43008640,"name":"EEI FONTE DOS ANJOS","address":"RUA ZEPPELIN, 54 LOMBA DO PINHEIRO. 91570-520 Porto Alegre - RS.","phone":"(51) 996622708","category":2,"latitude":"NA","longitude":"NA"},{"id":43008666,"name":"5225 IEI ESPACO DO SABER","address":"R MILLO RAFFIN, 79 MARIO QUINTANA. 91240-475 Porto Alegre - RS.","phone":"(51) 33877354","category":2,"latitude":-30.0294738,"longitude":-51.116994},{"id":43008674,"name":"EEI SITIO PARAISO","address":"ESTRADA COSTA GAMA, 5225 ABERTA DOS MORROS. 91788-199 Porto Alegre - RS.","phone":"(51) 32596265","category":2,"latitude":"NA","longitude":"NA"},{"id":43008682,"name":"EEI SEMEARTE","address":"RUA ABEL ROCHA TRILHA, 221 PROTASIO ALVES. 91240-520 Porto Alegre - RS.","phone":"(51) 33400118","category":2,"latitude":-30.02391,"longitude":-51.10787},{"id":43008690,"name":"5227 EEI MADRE VERONICA","address":"R CEL CLAUDINO, 80 CRISTAL. 91910-670 Porto Alegre - RS.","phone":"(51) 30199368","category":2,"latitude":-30.0941333,"longitude":-51.2440711},{"id":43008704,"name":"EEI PIMPAO","address":"AVENIDA IRENE RUPERTI, 79 PARQUE SANTA FE. 91180-620 Porto Alegre - RS.","phone":"(51) 30920481","category":2,"latitude":-30.01495,"longitude":-51.10963},{"id":43008720,"name":"EEI SAO JUDAS TADEU","address":"RUA DOM DIOGO DE SOUZA, 441 CRISTO REDENTOR. 91350-000 Porto Alegre - RS.","phone":"(51) 33727588","category":2,"latitude":-30.01126,"longitude":-51.15474},{"id":43008755,"name":"EEI CANTINHO DOS BAIXINHOS","address":"ACESSO E, 2339 RESTINGA. 91793-590 Porto Alegre - RS.","phone":"(51) 32505055","category":2,"latitude":"NA","longitude":"NA"},{"id":43008763,"name":"IEI CANTINHO FELIZ","address":"RUA TARCILA MORAES DUTRA, 555 RUBEM BERTA. 91170-170 Porto Alegre - RS.","phone":"(51) 33878909","category":2,"latitude":-30.00076,"longitude":-51.09375},{"id":43008925,"name":"EEI TURMA DA MAGALI BABY","address":"BECO DA TAQUARA, 3869 LOMBA DO PINHEIRO. 91570-730 Porto Alegre - RS.","phone":"(51) 33223688","category":2,"latitude":"NA","longitude":"NA"},{"id":43009000,"name":"EEF CRESCER","address":"RUA GALILEIA, 235 ESCOLA. VILA JARDIM. 91330-620 Porto Alegre - RS.","phone":"(51) 33345227","category":2,"latitude":"NA","longitude":"NA"},{"id":43009026,"name":"EEI ALECRIM","address":"AVENIDA SOLEDADE, 301 PETROPOLIS. 90470-340 Porto Alegre - RS.","phone":"(51) 30127647","category":2,"latitude":-30.03472,"longitude":-51.18039},{"id":43009034,"name":"EEI PROJETO CRIANCA SOGIPA","address":"RUA BARAO DO COTEGIPE, 400 SAO JOAO. 90540-020 Porto Alegre - RS.","phone":"(51) 33257200","category":2,"latitude":-30.0093,"longitude":-51.18877},{"id":43009042,"name":"EEI CASA AMETISTA","address":"RUA VITOR HUGO, 250 PETROPOLIS. 90630-070 Porto Alegre - RS.","phone":"(51) 30237663","category":2,"latitude":-30.04557,"longitude":-51.18882},{"id":43009069,"name":"EEI PROTASIO","address":"AVENIDA PROTASIO ALVES, 11355 PROTASIO ALVES. 91260-000 Porto Alegre - RS.","phone":"(51) 33670039","category":2,"latitude":"NA","longitude":"NA"},{"id":43009077,"name":"EEI BOSQUE ENCANTADO","address":"RUA WATANABE, 10 BELEM VELHO. 91787-355 Porto Alegre - RS.","phone":"(51) 32452633","category":2,"latitude":-30.11119,"longitude":-51.15968},{"id":43009085,"name":"EEI URSINHOS CARINHOSOS","address":"RUA SENZALA, 117 LOMBA DO PINHEIRO. 91570-420 Porto Alegre - RS.","phone":"(51) 30135961","category":2,"latitude":-30.1202,"longitude":-51.10072},{"id":43009093,"name":"EEI LUDICA INFANCIA","address":"RUA ZUZU ANGEL, 251 ABERTA DOS MORROS. 91787-880 Porto Alegre - RS.","phone":"(51) 30940006","category":2,"latitude":"NA","longitude":"NA"},{"id":43009107,"name":"IEI CANTO DAS CRIANCAS","address":"AVENIDA ANTONIO GIUDICE, 265 PROTASIO ALVES. 91260-040 Porto Alegre - RS.","phone":"(51) 84270165","category":2,"latitude":"NA","longitude":"NA"},{"id":43009115,"name":"5228 IEI APRENDENDO FELIZ","address":"AC CIRIO AMARAL DE OLIVEIRA, 403 RESTINGA. 91790-260 Porto Alegre - RS.","phone":"(51) 32575046","category":2,"latitude":-30.1504938,"longitude":-51.1351031},{"id":43009140,"name":"EEI SONHO DE CRIANCA II","address":"RUA FILADELFIA, 331 SAO JOAO. 90550-060 Porto Alegre - RS.","phone":"(51) 30860086","category":2,"latitude":-30.01721,"longitude":-51.19326},{"id":43009158,"name":"EEI SEMEAR","address":"RUA PROFESSOR JOAQUIM FELIZARDO, 165 ESPIRITO SANTO. 91770-370 Porto Alegre - RS.","phone":"(51) 32681535","category":2,"latitude":"NA","longitude":"NA"},{"id":43009166,"name":"5226 EEI PROF MARIETA PAIXAO ARAUJO","address":"R SARGENTO SILVIO DELMAR HOLLENBACH, 698 RUBEM BERTA. 91240-120 Porto Alegre - RS.","phone":"(51) 35166240","category":2,"latitude":-30.0219098,"longitude":-51.1096746},{"id":43009280,"name":"5229 IEI CONSTRUINDO O AMANHA VILA JARDIM","address":"R BARAO DE BAGE, 317 VILA JARDIM. 91330-570 Porto Alegre - RS.","phone":"(51) 33389395","category":2,"latitude":-30.0382218,"longitude":-51.1553158},{"id":43009298,"name":"EEI CADE O AUAU II","address":"RUA GENERAL NETO, 337 CASA. FLORESTA. 90560-020 Porto Alegre - RS.","phone":"(51) 35575461","category":2,"latitude":"NA","longitude":"NA"},{"id":43009310,"name":"EEI TARTARUGUINHA VERDE III","address":"AVENIDA GANZO, MENINO DEUS. 90150-071 Porto Alegre - RS.","phone":"(51) 35160834","category":2,"latitude":"NA","longitude":"NA"},{"id":43009328,"name":"EEI CATIVAR - PARTENON","address":"RUA PAULINO AZURENHA, 1472 PARTENON. 90680-240 Porto Alegre - RS.","phone":"(51) 33197786","category":2,"latitude":-30.07104,"longitude":-51.19985},{"id":43009352,"name":"EEI ARCO IRIS II","address":"AVENIDA JUCA BATISTA, 8000 LOTE 2011. BELEM NOVO. 91781-200 Porto Alegre - RS.","phone":"(51) 32778311","category":2,"latitude":-30.1882985,"longitude":-51.167033},{"id":43009387,"name":"EEI EDUCARE III","address":"AVENIDA ANDARAI, 266 PASSO DA AREIA. 91350-110 Porto Alegre - RS.","phone":"(51) 30135046","category":2,"latitude":-30.01408,"longitude":-51.16728},{"id":43032419,"name":"EEI ANJO SAPEQUINHA","address":"RUA ALVARES CABRAL, 269 CRISTO REDENTOR. 91350-250 Porto Alegre - RS.","phone":"(51) 30619445","category":2,"latitude":-30.01295,"longitude":-51.15774},{"id":43044999,"name":"5239 EEI MEU PEDACINHO DE CHAO","address":"R COLISEU, 893 RESTINGA. 91790-280 Porto Alegre - RS.","phone":"(51) 32491219","category":2,"latitude":-30.1585898,"longitude":-51.1362187},{"id":43045049,"name":"EEI TEMPO DE CRIANCA","address":"AVENIDA EDGAR PIRES DE CASTRO, 1142 ABERTA DOS MORROS. 91788-000 Porto Alegre - RS.","phone":"(51) 30247711","category":2,"latitude":"NA","longitude":"NA"},{"id":43045081,"name":"EEI TCHURMINHA ENCANTADA","address":"RUA ATILIO SUPERTI, 387 VILA NOVA. 91750-000 Porto Alegre - RS.","phone":"(51) 31057104","category":2,"latitude":"NA","longitude":"NA"},{"id":43045863,"name":"EEI CRESCER E SABER","address":"AVENIDA JUCA BATISTA, 4268 HIPICA. 91755-000 Porto Alegre - RS.","phone":"(51) 32649441","category":2,"latitude":"NA","longitude":"NA"},{"id":43046088,"name":"5238 EEI CHEIRINHO DE MAE","address":"ACESSO F, 2492 RESTINGA. 91793-695 Porto Alegre - RS.","phone":"(51) 32493821","category":2,"latitude":-30.1528026,"longitude":-51.1456262},{"id":43046096,"name":"EEI BRINCAR E ARTE","address":"RUA RONDONIA, 607 RESTINGA VELHA. 91790-470 Porto Alegre - RS.","phone":"(51) 32596250","category":2,"latitude":"NA","longitude":"NA"},{"id":43046258,"name":"EEI TARTARUGUINHA VERDE IV","address":"AVENIDA GANZO, 140 MENINO DEUS. 90150-070 Porto Alegre - RS.","phone":"(51) 37371600","category":2,"latitude":"NA","longitude":"NA"},{"id":43046460,"name":"ESCOLA DE EDUCACAO INFANTIL LILADIM LTDA","address":"RUA DOUTOR HERMES PACHECO, 468 HIPICA. 91755-010 Porto Alegre - RS.","phone":"(51) 33463993","category":2,"latitude":"NA","longitude":"NA"},{"id":43046509,"name":"EEI AQUARELA","address":"RUA FOLHA DA TARDE, 39 CASA. CRISTAL. 91910-710 Porto Alegre - RS.","phone":"(51) 30624540","category":2,"latitude":-30.09865,"longitude":-51.24773},{"id":43046576,"name":"EEI SONHO MEU","address":"RUA JOSE ALVES DE CASTRO, 130 VILA NOVA. 91750-090 Porto Alegre - RS.","phone":"(51) 32442361","category":2,"latitude":"NA","longitude":"NA"},{"id":43047629,"name":"EEI FLORESCER","address":"RUA PROFESSOR JOSE SALGADO MARTINS, 191 BELA VISTA. 90450-150 Porto Alegre - RS.","phone":"(51) 30288800","category":2,"latitude":"NA","longitude":"NA"},{"id":43047653,"name":"EEI IMAGINAR E CRIAR","address":"RUA GURUPA, 112 SARANDI. 91130-390 Porto Alegre - RS.","phone":"(51) 33481665","category":2,"latitude":"NA","longitude":"NA"},{"id":43047670,"name":"5230 EEI ABRASCE ILHA DO PAVAO","address":"BR 290, 98 ARQUIPELAGO. 90090-004 Porto Alegre - RS.","phone":"(51) 995660414","category":2,"latitude":-29.9950918,"longitude":-51.2170455},{"id":43048170,"name":"5232 IEI SALVATORE LETTIERI","address":"R DEZIDERIO SEVERINO, 431 PASSO DAS PEDRAS. 91230-250 Porto Alegre - RS.","phone":"(51) 34079527","category":2,"latitude":-30.0196723,"longitude":-51.1248138},{"id":43048196,"name":"EMEI MIGUEL GRANATO VELASQUEZ","address":"R ARMANDO COSTA, 0 LOTEAMENTO BONANZA. SARANDI. 91120-450 Porto Alegre - RS.","phone":"(51) 33440759","category":1,"latitude":-29.9820667,"longitude":-51.124038},{"id":43048200,"name":"EMEF PORTO NOVO","address":"RUA AMELIA SANTINI FORTUNATI, 101 SANTA ROSA DE LIMA. 91160-810 Porto Alegre - RS.","phone":"(51) 33810112","category":1,"latitude":-30.0013868,"longitude":-51.1074453},{"id":43051510,"name":"5236 EEI PITINGUINHA","address":"R WALTHER SCHNEIDER, 224 RESTINGA. 91790-402 Porto Alegre - RS.","phone":"(51) 32036570","category":2,"latitude":-30.1429328,"longitude":-51.1018623},{"id":43089160,"name":"5237 EEI WLANIR PORTO","address":"R ARGEMIRO OGANDO CORREA, 350 SERRARIA. 91770-810 Porto Alegre - RS.","phone":"(51) 99811515","category":2,"latitude":-30.1636441,"longitude":-51.227896},{"id":43089178,"name":"5233 EEI NOSSO SENHOR DOS PASSOS","address":"R CAPITAO PEDROSO, 540 RESTINGA. 91790-790 Porto Alegre - RS.","phone":"(51) 91154736","category":2,"latitude":-30.1657561,"longitude":-51.1475797},{"id":43089194,"name":"5240 EEI JARDIM FLORESTA LAMI","address":"RUA E, 115 LAMI. 91787-516 Porto Alegre - RS.","phone":"(51) 32456407","category":2,"latitude":-30.2381117,"longitude":-51.0832602},{"id":43089216,"name":"5241 EEI DESENVOLVENDO O SABER","address":"ACBSQ 6 3 UNIDADE VICINAL, 3728 RESTINGA. 91793-440 Porto Alegre - RS.","phone":"(51) 32574058","category":2,"latitude":-30.1472718,"longitude":-51.149968},{"id":43089259,"name":"EEI MEU MUNDO CRIANCA","address":"RUA MADRE ANA, 377 GLORIA. 91720-070 Porto Alegre - RS.","phone":"(51) 33186519","category":2,"latitude":"NA","longitude":"NA"},{"id":43089283,"name":"5235 EEI EDUARDA PUJOL ZANIRATTI II","address":"R ELZIRA NUNES DA SILVA, 100 RESTINGA. 91788-712 Porto Alegre - RS.","phone":"(51) 32480011","category":2,"latitude":-30.1612722,"longitude":-51.1505841},{"id":43089348,"name":"EEI PANAMERICANA","address":"RUA JOAO PAETZEL, 440 CHACARA DAS PEDRAS. 91330-280 Porto Alegre - RS.","phone":"(51) 33345866","category":2,"latitude":-30.0383393,"longitude":-51.1667096},{"id":43089518,"name":"UNIDADE ENSINO FARROUPILHA TEN CEL CORREIA LIMA","address":"RUA TENENTE CORONEL CORREIA LIMA, 140 MORRO SANTA TEREZA. 90850-250 Porto Alegre - RS.","phone":"(51) 32328382","category":2,"latitude":"NA","longitude":"NA"},{"id":43092136,"name":"EEI TARTARUGUINHA V","address":"AVENIDA GANZO, 601 MENINO DEUS. 90150-071 Porto Alegre - RS.","phone":"(51) 35740636","category":2,"latitude":"NA","longitude":"NA"},{"id":43104924,"name":"COLEGIO ANCHIETA","address":"AV NILO PECANHA, 1521 TRES FIGUEIRAS. 91330-000 Porto Alegre - RS.","phone":"(51) 33826000","category":2,"latitude":"NA","longitude":"NA"},{"id":43104932,"name":"COLEGIO DE APLICACAO UFRGS","address":"AVENIDA BENTO GONCALVES, 9500 AGRONOMIA. 91501-970 Porto Alegre - RS.","phone":"(51) 33086977","category":1,"latitude":-30.07583,"longitude":-51.12293},{"id":43104940,"name":"COLEGIO BATISTA","address":"AVENIDA CRISTOVAO COLOMBO, 1098 FLORESTA. 90560-001 Porto Alegre - RS.","phone":"(51) 21365200","category":2,"latitude":-30.02149,"longitude":-51.20848},{"id":43104959,"name":"COLEGIO MARISTA CHAMPAGNAT","address":"AVENIDA BENTO GONCALVES, 4314 PREDIO 17. PARTENON. 90650-001 Porto Alegre - RS.","phone":"(51) 33206200","category":2,"latitude":-30.06156,"longitude":-51.17294},{"id":43104967,"name":"COL CONCORDIA","address":"AVENIDA PRESIDENTE FRANKLIN ROOSEVELT, 770 NAVEGANTES. 90230-001 Porto Alegre - RS.","phone":"(51) 40099090","category":2,"latitude":-30.00657,"longitude":-51.20227},{"id":43104975,"name":"CENT ENS MEDIO FARROUPILHA","address":"RUA CARLOS HUBER, 425 TRES FIGUEIRAS. 91330-150 Porto Alegre - RS.","phone":"(51) 34551805","category":2,"latitude":-30.03569,"longitude":-51.17098},{"id":43104983,"name":"COLEGIO ISRAELITA BRASILEIRO","address":"AVENIDA PROTASIO ALVES, 943 RIO BRANCO. 90410-000 Porto Alegre - RS.","phone":"(51) 33313933","category":2,"latitude":-30.04057,"longitude":-51.19916},{"id":43104991,"name":"COL MARIA IMACULADA","address":"AVENIDA PADRE CACIQUE, 1028 PRAIA DE BELAS. 90810-240 Porto Alegre - RS.","phone":"(51) 32331145","category":2,"latitude":-30.06716,"longitude":-51.23557},{"id":43105009,"name":"COLEGIO MILITAR DE PORTO ALEGRE","address":"AVENIDA JOSE BONIFACIO, 363 FARROUPILHA. 90040-130 Porto Alegre - RS.","phone":"(51) 30947600","category":1,"latitude":-30.03883,"longitude":-51.21336},{"id":43105017,"name":"COL NOSSA SENHORA DO BOM CONSELHO","address":"RUA RAMIRO BARCELOS, 996 FLORESTA. 90035-001 Porto Alegre - RS.","phone":"(51) 33110522","category":2,"latitude":-30.02741,"longitude":-51.20914},{"id":43105025,"name":"COLEGIO NOSSA SRA DA GLORIA","address":"AVENIDA PROFESSOR OSCAR PEREIRA, 3052 GLORIA. 91710-000 Porto Alegre - RS.","phone":"(51) 33363402","category":2,"latitude":-30.07665,"longitude":-51.19945},{"id":43105033,"name":"COLEGIO LA SALLE DORES","address":"RUA RIACHUELO, 800 CENTRO HISTORICO. 90010-272 Porto Alegre - RS.","phone":"(51) 32139600","category":2,"latitude":-30.03238,"longitude":-51.23373},{"id":43105050,"name":"COLEGIO RAINHA DO BRASIL","address":"RUA PAULINO CHAVES, 262 SANTO ANTONIO. 90640-200 Porto Alegre - RS.","phone":"(51) 32233819","category":2,"latitude":-30.05814,"longitude":-51.20053},{"id":43105068,"name":"COLEGIO SANTA INES","address":"AVENIDA PROTASIO ALVES, 2493 PETROPOLIS. 90410-002 Porto Alegre - RS.","phone":"(51) 33319111","category":2,"latitude":-30.04375,"longitude":-51.18439},{"id":43105076,"name":"COLEGIO SANTA TERESA DE JESUS","address":"AVENIDA DA CAVALHADA, 2250 CAVALHADA. 91740-000 Porto Alegre - RS.","phone":"(51) 33987815","category":2,"latitude":-30.0979968,"longitude":-51.2298507},{"id":43105084,"name":"COL LA SALLE SANTO ANTONIO","address":"RUA LUIZ DE CAMOES, 372 SANTO ANTONIO. 90620-150 Porto Alegre - RS.","phone":"(51) 32231078","category":2,"latitude":-30.05547,"longitude":-51.2014},{"id":43105106,"name":"COL LA SALLE SAO JOAO","address":"RUA HONORIO SILVEIRA DIAS, 645 SAO JOAO. 90550-150 Porto Alegre - RS.","phone":"(51) 33378677","category":2,"latitude":-30.00847,"longitude":-51.186},{"id":43105114,"name":"COLEGIO SAO JUDAS TADEU","address":"RUA DOM DIOGO DE SOUZA, 100 CRISTO REDENTOR. 91350-000 Porto Alegre - RS.","phone":"(51) 33407888","category":2,"latitude":-30.0114,"longitude":-51.15449},{"id":43105130,"name":"COLEGIO MARISTA SAO PEDRO","address":"RUA ALVARO CHAVES, 625 FLORESTA. 90220-040 Porto Alegre - RS.","phone":"(51) 32908500","category":2,"latitude":-30.01687,"longitude":-51.20626},{"id":43105149,"name":"COLEGIO BOM JESUS SEVIGNE","address":"RUA DUQUE DE CAXIAS, 1475 CENTRO. 90010-283 Porto Alegre - RS.","phone":"(51) 32846200","category":2,"latitude":-30.03364,"longitude":-51.22649},{"id":43105246,"name":"EMEM EMILIO MEYER","address":"AV NITEROI, 472 MEDIANEIRA. 90880-270 Porto Alegre - RS.","phone":"(51) 32192608","category":1,"latitude":-30.0692642,"longitude":-51.2079796},{"id":43105262,"name":"ESCOLA DE EDUCACAO INFANTIL CRIANCA ARTEIRA","address":"RUA ARTIGAS, 340 PETROPOLIS. 90670-120 Porto Alegre - RS.","phone":"(51) 33333029","category":2,"latitude":-30.0472691,"longitude":-51.1867145},{"id":43105270,"name":"ESC DE ENS FUND NOSSA SENHORA DO CENACULO","address":"VIELA SAO BRAZ, 17 PASSO DA AREIA. PASSO DA AREIA. 90520-480 Porto Alegre - RS.","phone":"(51) 33413257","category":2,"latitude":-30.01603,"longitude":-51.17491},{"id":43105289,"name":"ESC ENS FUND MARIA AUXILIADORA","address":"RUA MARECHAL JOSE INACIO DA SILVA, 305 PASSO DA AREIA. 90520-280 Porto Alegre - RS.","phone":"(51) 33411590","category":2,"latitude":-30.01106,"longitude":-51.1789},{"id":43105300,"name":"ESCOLA DE ENSINO FUNDAMENTAL MADRE RAFFO","address":"RUA DOUTOR CARLOS FLORES, 53 BELEM NOVO. 91780-080 Porto Alegre - RS.","phone":"(51) 32413216","category":2,"latitude":"NA","longitude":"NA"},{"id":43105335,"name":"ESC ENS MEDIO MARIA IMACULADA","address":"RUA GENERAL GOMES CARNEIRO, 364 MEDIANEIRA. 90870-310 Porto Alegre - RS.","phone":"(51) 32316509","category":2,"latitude":-30.06749,"longitude":-51.21026},{"id":43105343,"name":"ESC ENS FUN NOSSA SENHORA DO BRASIL","address":"RUA ALARICO VALENCA, 160 VILA JOAO PESSOA. 91520-010 Porto Alegre - RS.","phone":"(51) 33364509","category":2,"latitude":-30.06394,"longitude":-51.17502},{"id":43105351,"name":"COLEGIO ROMANO SAO MATEUS","address":"RUA BORTOLO BARBIERI, 90 JARDIM SAO PEDRO. 91040-160 Porto Alegre - RS.","phone":"(51) 33418084","category":2,"latitude":-30.00441,"longitude":-51.16511},{"id":43105386,"name":"INST ESTADUAL PROFESSORA GEMA ANGELINA BELIA","address":"AV ANTONIO DE CARVALHO 495, 495 JARDIM CARVALHO. 91430-001 Porto Alegre - RS.","phone":"(51) 33877092","category":1,"latitude":-30.06203,"longitude":-51.14896},{"id":43105394,"name":"ESC EST ENS FUN NACOES UNIDAS","address":"R MANOEL DO CARMO 100, 100 NONOAI. 90830-340 Porto Alegre - RS.","phone":"(51) 32662049","category":1,"latitude":-30.08994,"longitude":-51.2263},{"id":43105408,"name":"COLEGIO ADVENTISTA DE PORTO ALEGRE","address":"RUA CAMAQUA, 534 CAMAQUA. 91910-630 Porto Alegre - RS.","phone":"(51) 30865050","category":2,"latitude":-30.10402,"longitude":-51.23909},{"id":43105416,"name":"6001 ESC ENS FUND PEQUENA CASA DA CRIANCA","address":"R MARIO DE ARTAGAO, 13 PARTENON. 90680-090 Porto Alegre - RS.","phone":"(51) 30760500","category":2,"latitude":-30.0654387,"longitude":-51.1946497},{"id":43105440,"name":"EMEF AFONSO GUERREIRO LIMA","address":"R GUAIBA LOMBA DO PINHEIRO, 203 LOMBA DO PINHEIRO. 91560-640 Porto Alegre - RS.","phone":"(51) 33191011","category":1,"latitude":-30.1113289,"longitude":-51.1121833},{"id":43105459,"name":"EMEF AMERICA","address":"RUA PADRE ANGELO COSTA, 175 VILA VARGAS. PARTENON. 91520-161 Porto Alegre - RS.","phone":"(51) 33181076","category":1,"latitude":-30.078529,"longitude":-51.167881},{"id":43105467,"name":"EMEF ARAMY SILVA","address":"R CHICO PEDRO, 390 CAMAQUA. 91910-650 Porto Alegre - RS.","phone":"(51) 32413382","category":1,"latitude":-30.0980326,"longitude":-51.2416981},{"id":43105475,"name":"EMEF DECIO MARTINS COSTA","address":"R CRISTOVAO JAQUES, 488 SARANDI. 91140-420 Porto Alegre - RS.","phone":"(51) 33472935","category":1,"latitude":-30.0121106,"longitude":-51.1006669},{"id":43105483,"name":"EMEF DOLORES ALCARAZ CALDAS","address":"R DR CARLOS NIEDERAUER HOFMEISTER, 85 RESTINGA. 91790-020 Porto Alegre - RS.","phone":"(51) 32501609","category":1,"latitude":-30.1515842,"longitude":-51.1378651},{"id":43105491,"name":"EMEF JOSE LOUREIRO DA SILVA","address":"AV CAPIVARI, 1999 CRISTAL. 90810-070 Porto Alegre - RS.","phone":"(51) 32665175","category":1,"latitude":-30.0823195,"longitude":-51.2325126},{"id":43105505,"name":"EMEB DR LIBERATO SALZANO VIEIRA DA CUNHA","address":"R XAVIER DE CARVALHO, 274 SARANDI. 91110-440 Porto Alegre - RS.","phone":"(51) 33641065","category":1,"latitude":-29.9953156,"longitude":-51.1333765},{"id":43105513,"name":"EMEF NOSSA SENHORA DE FATIMA","address":"R A VILA N S FATIMA DIVINEIA, 15 BOM JESUS. 91420-701 Porto Alegre - RS.","phone":"(51) 33383695","category":1,"latitude":-30.0467846,"longitude":-51.1584235},{"id":43105521,"name":"EMEF PEPITA DE LEAO","address":"R ESTADIO, 29 PASSO DAS PEDRAS. 91230-030 Porto Alegre - RS.","phone":"(51) 33441522","category":1,"latitude":-30.0154933,"longitude":-51.127882},{"id":43105530,"name":"EMEF PRESIDENTE VARGAS","address":"RUA ANA AURORA DO AMARAL LISBOA, 60 PASSO DAS PEDRAS. 91230-000 Porto Alegre - RS.","phone":"(51) 33481732","category":1,"latitude":-30.0166174,"longitude":-51.1275765},{"id":43105548,"name":"EMEF HEITOR VILLA LOBOS","address":"AV SANTO DIAS DA SILVA, 1 VILA MAPA. LOMBA DO PINHEIRO. 91550-500 Porto Alegre - RS.","phone":"(51) 33191413","category":1,"latitude":-30.0966154,"longitude":-51.1327286},{"id":43105564,"name":"ESC EST ENS FUN PROFESSORA LUIZA TEIXEIRA LAUFFER","address":"R RUA NOSSA SENHORA DE FATIMA 201, 201 RUBEM BERTA. 91250-472 Porto Alegre - RS.","phone":"(51) 33661213","category":1,"latitude":-30.01447,"longitude":-51.09622},{"id":43105580,"name":"INST ESTADUAL DOM DIOGO DE SOUZA","address":"R ADAO BAINO 206, 206 CRISTO REDENTOR. 91350-240 Porto Alegre - RS.","phone":"(51) 33445806","category":1,"latitude":-30.01249,"longitude":-51.15527},{"id":43105629,"name":"ESC ADVENTISTA DE ENSINO FUNDAMENTAL DE SARANDI","address":"RUA PASSOS FIGUEIROA, 841 SARANDI. 91110-500 Porto Alegre - RS.","phone":"(51) 33647979","category":2,"latitude":-29.99146,"longitude":-51.13296},{"id":43105637,"name":"COL ADVENTISTA MARECHAL RONDON","address":"RUA MALI, 255 VILA IPIRANGA. 91370-230 Porto Alegre - RS.","phone":"(51) 33496600","category":2,"latitude":-30.01315,"longitude":-51.14875},{"id":43105670,"name":"COLEGIO SINODAL DO SALVADOR","address":"AVENIDA MATHILDE TREIN RENNER, 55 VILA IPIRANGA. 91370-050 Porto Alegre - RS.","phone":"(51) 33405509","category":2,"latitude":-30.01343,"longitude":-51.1474},{"id":43105734,"name":"COL SANTA DOROTEIA","address":"RUA MALI, 405 VILA IPIRANGA. 91370-230 Porto Alegre - RS.","phone":"(51) 33407908","category":2,"latitude":-30.01472,"longitude":-51.14904},{"id":43105742,"name":"ESC EST ENS FUN PROFESSORA MARINA MARTINS DE SOUZA","address":"R SARG EXP GERALDO SANTANA S\/N, S\/N PARTENON. 91530-640 Porto Alegre - RS.","phone":"(51) 33181103","category":1,"latitude":-30.07,"longitude":-51.156},{"id":43105750,"name":"ESC EST ENS FUN ACORIANOS","address":"R SALVADOR PINHEIRO 65, 65 VILA JARDIM. 91320-240 Porto Alegre - RS.","phone":"(51) 33380835","category":1,"latitude":-30.0345,"longitude":-51.15732},{"id":43105769,"name":"ESC EST ENS MED AGRONOMO PEDRO PEREIRA","address":"AV BENTO GONCALVES 8426, 8426 AGRONOMIA. 91540-000 Porto Alegre - RS.","phone":"(51) 33195606","category":1,"latitude":-30.07483,"longitude":-51.13434},{"id":43105785,"name":"ESC EST ENS MED ALBERTO TORRES","address":"AV RODRIGUES DA FONSECA 1666, 1666 VILA NOVA. 91740-800 Porto Alegre - RS.","phone":"(51) 32633078","category":1,"latitude":-30.11576,"longitude":-51.21015},{"id":43105793,"name":"ESC EST ENS FUN ALCEU WAMOSY","address":"R JARDIM DAS BROMELIAS 52, 52 JARDIM CAMAQUA. 91920-400 Porto Alegre - RS.","phone":"(51) 32429951","category":1,"latitude":-30.11127,"longitude":-51.23483},{"id":43105807,"name":"ESC EST ED BAS ALMIRANTE BACELAR","address":"AV PROTASIO ALVES 13097, 13097 PASSO DORNELLES. 91260-000 Porto Alegre - RS.","phone":"(51) 34351553","category":1,"latitude":"NA","longitude":"NA"},{"id":43105815,"name":"ESC EST ENS MED ALMIRANTE BARROSO","address":"R CAPITAO COELHO 95, 95 ARQUIPELAGO. 90090-040 Porto Alegre - RS.","phone":"(51) 32116045","category":1,"latitude":-30.01414,"longitude":-51.25968},{"id":43105823,"name":"ESC EST ENS FUN ALVARENGA PEIXOTO","address":"R SANTA RITA DE CASSIA 100, 100 ILHA DOS MARINHEIROS. 90090-260 Porto Alegre - RS.","phone":"(51) 32031470","category":1,"latitude":"NA","longitude":"NA"},{"id":43105831,"name":"ESC EST ENS FUN AMERICA","address":"R OCTACILIO JOSE DIAS 0, 0 JARDIM INGA. 91230-380 Porto Alegre - RS.","phone":"(51) 33662797","category":1,"latitude":-30.0154,"longitude":-51.12168},{"id":43105840,"name":"ESC EST ENS FUN ANA NERI","address":"R JOAQUIM SILVEIRA 738, 738 SAO SEBASTIAO. 91060-320 Porto Alegre - RS.","phone":null,"category":1,"latitude":-30.00297,"longitude":-51.14277},{"id":43105858,"name":"ESC EST ENS MED ANNE FRANK","address":"AV CAUDURO 238, 238 BOM FIM. 90035-110 Porto Alegre - RS.","phone":"(51) 33113864","category":1,"latitude":-30.03172,"longitude":-51.21344},{"id":43105866,"name":"ESC EST ENS MED ANTAO DE FARIA","address":"R BOM JESUS 505, 505 BOM JESUS. 91420-030 Porto Alegre - RS.","phone":"(51) 33675621","category":1,"latitude":-30.04387,"longitude":-51.1523},{"id":43105874,"name":"ESC EST ED BAS APELES PORTO ALEGRE","address":"R SAO MANOEL 1981, 1981 SANTANA. 90620-110 Porto Alegre - RS.","phone":"(51) 32230120","category":1,"latitude":-30.05092,"longitude":-51.20053},{"id":43105882,"name":"ESC EST ENS FUN ARAGUAIA","address":"ETR GEDEON LEITE 780, 780 ABERTA DOS MORROS. 91787-770 Porto Alegre - RS.","phone":"(51) 32683110","category":1,"latitude":-30.15388,"longitude":-51.18282},{"id":43105890,"name":"ESC EST ENS FUN ARAUJO PORTO ALEGRE","address":"R PANDIA CALOGERAS 429, 429 SARANDI. 91120-560 Porto Alegre - RS.","phone":null,"category":1,"latitude":-29.98629,"longitude":-51.12542},{"id":43105904,"name":"ESC EST ENS FUN ARAUJO VIANA","address":"R NOVE DE JUNHO 542, 542 PARTENON. 91520-610 Porto Alegre - RS.","phone":"(51) 33182807","category":1,"latitude":-30.06699,"longitude":-51.16161},{"id":43105920,"name":"ESC EST ENS FUN BAEPENDI","address":"ETR DOS ALPES 10 CASA DIRET, 10 CASA DIRET. CASCATA. 91720-120 Porto Alegre - RS.","phone":"(51) 33525002","category":1,"latitude":-30.0844,"longitude":-51.19923},{"id":43105939,"name":"ESC EST ENS FUN BAHIA","address":"R ANGELITO ASMUZ AIQUEL 125, 125 BOA VISTA. 91340-410 Porto Alegre - RS.","phone":"(51) 33287113","category":1,"latitude":-30.02433,"longitude":-51.17517},{"id":43105947,"name":"ESC EST ENS FUN PADRE BALDUINO RAMBO","address":"R HUMBERTO DE CAMPOS 130, 130 PARTENON. 90660-280 Porto Alegre - RS.","phone":null,"category":1,"latitude":-30.05921,"longitude":-51.19579},{"id":43105963,"name":"ESC EST ENS FUN MARGARIDA COELHO DE SOUZA","address":"AV AVENIDA DO LAMI 4742, 4742 BOA VISTA DO SUL. 91785-430 Porto Alegre - RS.","phone":"(51) 32585221","category":1,"latitude":-30.21184,"longitude":-51.13441},{"id":43105971,"name":"ESC EST ENS FUN PROFESSORA BRANCA DIVA PEREIRA DE SOUZA","address":"AV SAO PAULO 1020, 1020 SAO GERALDO. 90230-160 Porto Alegre - RS.","phone":"(51) 32220180","category":1,"latitude":-30.01035,"longitude":-51.2057},{"id":43105980,"name":"ESC EST ENS FUN BRASILIA","address":"R DONA MARGARIDA 1199, 1199 SAO JOAO. 90240-611 Porto Alegre - RS.","phone":"(51) 33255808","category":1,"latitude":-30.00055,"longitude":-51.19089},{"id":43105998,"name":"ESC EST ENS FUN BRIGADEIRO FRANCISCO DE LIMA E SILVA","address":"R TUNISIA 60, 60 JARDIM ITATI. 91370-290 Porto Alegre - RS.","phone":null,"category":1,"latitude":-30.01661,"longitude":-51.14878},{"id":43106005,"name":"ESC EST ENS FUN BRIGADEIRO SILVA PAIS","address":"R PROF CLEMENTE PINTO 555, 555 TERESOPOLIS. 90870-220 Porto Alegre - RS.","phone":"(51) 32339765","category":1,"latitude":-30.0746,"longitude":-51.21331},{"id":43106013,"name":"ESC EST ENS FUN CAMILA FURTADO ALVES","address":"R ALMIRANTE BARROSO 79, 79 FLORESTA. 90220-021 Porto Alegre - RS.","phone":"(51) 32222438","category":1,"latitude":-30.01482,"longitude":-51.21146},{"id":43106021,"name":"ESC EST ENS FUN CANDIDO PORTINARI","address":"R MUCIO TEIXEIRA 252, 252 MENINO DEUS. 90050-360 Porto Alegre - RS.","phone":null,"category":1,"latitude":-30.04681,"longitude":-51.2237},{"id":43106030,"name":"ESC EST ENS FUN DR CARLOS BARBOSA GONCALVES","address":"TRV DR HEINZELMANN 250, 250 NAVEGANTES. 90240-100 Porto Alegre - RS.","phone":"(51) 33711590","category":1,"latitude":-29.99376,"longitude":-51.1982},{"id":43106048,"name":"COL ESTADUAL CARLOS FAGUNDES DE MELLO","address":"R IRMA MARIA JOSE TREVISAN 200, 200 NAVEGANTES VILA FAR. 90250-430 Porto Alegre - RS.","phone":"(51) 33744722","category":1,"latitude":-29.98028,"longitude":-51.19275},{"id":43106056,"name":"ESC EST ENS MED CEARA","address":"AV ARNALDO BOHRER 98, 98 TERESOPOLIS. 91720-130 Porto Alegre - RS.","phone":"(51) 33367222","category":1,"latitude":-30.07946,"longitude":-51.20816},{"id":43106072,"name":"ESC EST ENS FUN PRUDENTE DE MORAIS","address":"R DR PRUDENTE DE MORAIS 27, 27 CHACARA DAS PEDRAS. 91330-170 Porto Alegre - RS.","phone":"(51) 33341962","category":1,"latitude":-30.03385,"longitude":-51.16409},{"id":43106080,"name":"ESC EST ENS FUN CLOTILDE CACHAPUZ DE MEDEIROS","address":"R DOS ARACHANES 242, 242 ESPIRITO SANTO. 91770-130 Porto Alegre - RS.","phone":"(51) 32465993","category":1,"latitude":-30.14639,"longitude":-51.22074},{"id":43106099,"name":"ESC EST ENS FUN COELHO NETO","address":"R ALEXANDRE HERCULANO 11, 11 BOM JESUS. 91420-360 Porto Alegre - RS.","phone":"(51) 33869070","category":1,"latitude":-30.04419,"longitude":-51.16363},{"id":43106102,"name":"ESC EST ENS FUN CORONEL TITO MARQUES FERNANDES","address":"R CLEVELAND JUNTO A DL 250, 250 MORRO SANTA TEREZA. 90850-240 Porto Alegre - RS.","phone":"(51) 32170068","category":1,"latitude":-30.06664,"longitude":-51.22189},{"id":43106110,"name":"ESC EST ENS FUN GENERAL NETO","address":"ETR EDGAR PIRES DE CASTRO 10521, 10521 LAGEADO. 91785-669 Porto Alegre - RS.","phone":"(51) 32617953","category":1,"latitude":-30.20936,"longitude":-51.11149},{"id":43106129,"name":"ESC EST ENS FUN CUSTODIO DE MELLO","address":"R ARGEMIRO OGANDO CORREA 220 V SARGENTO, 220 V SARGENTO. SERRARIA. 91770-810 Porto Alegre - RS.","phone":"(51) 32493020","category":1,"latitude":-30.16444,"longitude":-51.22821},{"id":43106137,"name":"ESC EST ENS FUN DOM PEDRO I","address":"R PEDRO BOTICARIO 654, 654 GLORIA. 90660-070 Porto Alegre - RS.","phone":"(51) 33526819","category":1,"latitude":-30.07432,"longitude":-51.1991},{"id":43106145,"name":"ESC EST ENS FUN ALMIRANTE ALVARO ALBERTO DA MOTTA E SILVA","address":"R DONA HELENA 100 VILA BARRA, 100 VILA BARRA. SANTA TEREZA. 90830-585 Porto Alegre - RS.","phone":"(51) 32666876","category":1,"latitude":-30.08045,"longitude":-51.22536},{"id":43106153,"name":"ESC EST ENS FUN DESIDERIO TORQUATO FINAMOR","address":"AV BENTO GONCALVES 7500, 7500 AGRONOMIA. 91540-000 Porto Alegre - RS.","phone":"(51) 33851023","category":1,"latitude":-30.06095,"longitude":-51.17197},{"id":43106161,"name":"ESC EST ED BAS DOLORES ALCARAZ CALDAS","address":"R AFONSO CELSO PUPE DA SILVEIRA 25, 25 JARDIM IPIRANGA. 91360-020 Porto Alegre - RS.","phone":null,"category":1,"latitude":-30.01881,"longitude":-51.1614},{"id":43106170,"name":"ESC EST ENS FUN IMPERATRIZ LEOPOLDINA","address":"AV AVENIDA ITAJAI 241, 241 PETROPOLIS. 90470-140 Porto Alegre - RS.","phone":"(51) 33312910","category":1,"latitude":-30.03662,"longitude":-51.18347},{"id":43106188,"name":"ESC EST ENS FUN DONA LUIZA FREITAS VALE ARANHA","address":"ETR ESTRADA COSTA GAMA 801, 801 BELEM VELHO. 91787-311 Porto Alegre - RS.","phone":"(51) 32487870","category":1,"latitude":-30.12056,"longitude":-51.17662},{"id":43106196,"name":"ESC EST ENS MED RAFAELA REMIAO","address":"ETR JOAO DE OLIVEIRA REMIAO 2689, 2689 LOMBA DO PINHEIRO. 91550-000 Porto Alegre - RS.","phone":"(51) 33198389","category":1,"latitude":-30.09802,"longitude":-51.12649},{"id":43106200,"name":"ESC EST ENS FUN DR EMILIO KEMP","address":"R MONTEIRO LOBATO 475, 475 PARTENON. 90620-270 Porto Alegre - RS.","phone":"(51) 33366212","category":1,"latitude":-30.05232,"longitude":-51.19482},{"id":43106218,"name":"ESC EST ENS FUN DR FERREIRA DE ABREU","address":"R BATOVI 25, 25 VILA LEAO SARANDI. 91130-520 Porto Alegre - RS.","phone":"(51) 33652555","category":1,"latitude":-29.9986,"longitude":-51.12758},{"id":43106226,"name":"ESC EST ENS FUN DR JOAO BATISTA DE LACERDA","address":"R BISPO SARDINHA 159, 159 VILA IPIRANGA. 91370-130 Porto Alegre - RS.","phone":"(51) 33407175","category":1,"latitude":-30.02314,"longitude":-51.14871},{"id":43106234,"name":"ESC EST ENS FUN DR JOSE CARLOS FERREIRA","address":"R MARIO DE ARTAGAO 455 PREDIO, 455 PREDIO. PARTENON. 90680-090 Porto Alegre - RS.","phone":"(51) 33842015","category":1,"latitude":-30.06804,"longitude":-51.1915},{"id":43106242,"name":"ESC EST ENS FUN DR JOSE LOUREIRO DA SILVA","address":"ETR ESTRADA RETIRO DA PONTA GROSSA 3541, 3541 PONTA GROSSA. 91780-590 Porto Alegre - RS.","phone":"(51) 32488066","category":1,"latitude":-30.18527,"longitude":-51.20922},{"id":43106250,"name":"ESC EST ENS FUN DR MARTINS COSTA JUNIOR","address":"R D FIRMINA 1377, 1377 SAO JOSE PARTENON. 91520-210 Porto Alegre - RS.","phone":null,"category":1,"latitude":-30.07405,"longitude":-51.16904},{"id":43106277,"name":"ESC EST ENS MED DR OSCAR TOLLENS","address":"R VIDAL DE NEGREIROS 432, 432 PARTENON. 91520-480 Porto Alegre - RS.","phone":"(51) 33847067","category":1,"latitude":-30.06606,"longitude":-51.16755},{"id":43106293,"name":"ESC EST ENS FUN DR PACHECO PRATES","address":"PCA NOSSA SENHORA DE BELEM S\/N, S\/N BELEM VELHO. 91712-240 Porto Alegre - RS.","phone":null,"category":1,"latitude":-30.1166,"longitude":-51.17917},{"id":43106307,"name":"ESC EST ENS FUN DR VICTOR DE BRITTO","address":"R SEBASTIAO WOLF 231, 231 NONOAI. 91720-540 Porto Alegre - RS.","phone":"(51) 32425188","category":1,"latitude":-30.08991,"longitude":-51.21467},{"id":43106315,"name":"ESC EST ENS FUN DUQUE DE CAXIAS","address":"R GEN CALDWELL 1175, 1175 AZENHA. 90130-051 Porto Alegre - RS.","phone":"(51) 32231530","category":1,"latitude":"NA","longitude":"NA"},{"id":43106323,"name":"ESC EST ENS FUN ENG RODOLFO AHRONS","address":"R ANTONIO SEVERINO NETO 109, 109 RUBEM BERTA. 91250-330 Porto Alegre - RS.","phone":"(51) 33681023","category":1,"latitude":-30.01538,"longitude":-51.09996},{"id":43106331,"name":"ESC EST ENS FUN ESPIRITO SANTO","address":"R ASCENCAO 245, 245 GLORIA. 91710-180 Porto Alegre - RS.","phone":"(51) 33843097","category":1,"latitude":-30.07805,"longitude":-51.19195},{"id":43106340,"name":"ESC EST ENS FUN ESTADO DO RIO GRANDE DO SUL","address":"R WASHINGTON LUIZ 980, 980 CENTRO. 90010-460 Porto Alegre - RS.","phone":"(51) 32255875","category":1,"latitude":-30.03636,"longitude":-51.23395},{"id":43106358,"name":"ESC EST ENS FUN EUCLIDES DA CUNHA","address":"R BARAO DO CERRO LARGO 385, 385 MENINO DEUS. 90850-110 Porto Alegre - RS.","phone":"(51) 32336323","category":1,"latitude":-30.06336,"longitude":-51.2274},{"id":43106366,"name":"ESC EST ENS FUN EVA CARMINATTI","address":"R PAPA JOAO PAULO II 145 PARADA 3, 145 PARADA 3. LOMBA DO PINHEIRO. 91550-550 Porto Alegre - RS.","phone":"(51) 33221702","category":1,"latitude":"NA","longitude":"NA"},{"id":43106374,"name":"ESC EST ENS FUN EVARISTA FLORES DA CUNHA","address":"PCA INACIO ANTONIO DA SILVA SN S\/N, S\/N S\/N. BELEM NOVO. 91780-330 Porto Alegre - RS.","phone":"(51) 32591353","category":1,"latitude":-30.21193,"longitude":-51.18342},{"id":43106382,"name":"ESC EST ENS FUN EVARISTO GONCALVES NETTO","address":"R UM CEFER 2 393, 393 JARDIM CARVALHO. 91430-370 Porto Alegre - RS.","phone":"(51) 33861162","category":1,"latitude":"NA","longitude":"NA"},{"id":43106390,"name":"ESC EST ENS FUN FABIOLA PINTO DORNELLES","address":"R DR EDUARDO CHARTIER 1192, 1192 HIGIENOPOLIS. 90520-100 Porto Alegre - RS.","phone":null,"category":1,"latitude":-30.01946,"longitude":-51.1796},{"id":43106404,"name":"ESC EST ENS FUN FELIPE DE OLIVEIRA","address":"R FELIPE DE OLIVEIRA 59, 59 SANTA CECILIA. 90630-000 Porto Alegre - RS.","phone":"(51) 33213388","category":1,"latitude":-30.04235,"longitude":-51.20233},{"id":43106412,"name":"ESC EST ENS FUN FERNANDO FERRARI","address":"R UPAMOROTI 1200, 1200 CRISTAL. 90820-140 Porto Alegre - RS.","phone":"(51) 32472254","category":1,"latitude":-30.09179,"longitude":-51.23769},{"id":43106420,"name":"ESC EST ED BAS FERNANDO GOMES","address":"R PROF FREDERICO G GAELZER 168, 168 JARDIM DO SALSO. 91410-140 Porto Alegre - RS.","phone":"(51) 33817722","category":1,"latitude":-30.04822,"longitude":-51.16931},{"id":43106439,"name":"ESC EST ENS MED OSCAR COELHO DE SOUZA","address":"ETR DO VAREJAO 372, 372 LAMI. 91787-170 Porto Alegre - RS.","phone":"(51) 32585543","category":1,"latitude":-30.22017,"longitude":-51.09708},{"id":43106447,"name":"ESC EST ENS FUN GABRIELA MISTRAL","address":"R CARLOS PESSOA DE BRUM 150, 150 SANTO ANTONIO. 90640-140 Porto Alegre - RS.","phone":null,"category":1,"latitude":-30.05715,"longitude":-51.20636},{"id":43106455,"name":"ESC EST ENS FUN GEN IBA ILHA MOREIRA","address":"R HUM CEFER S\/N, S\/N JARDIM CARVALHO. 91430-320 Porto Alegre - RS.","phone":"(51) 33512840","category":1,"latitude":-30.05372,"longitude":-51.14999},{"id":43106463,"name":"ESC EST ENS FUN GENERAL DALTRO FILHO","address":"AV AMERICA 145, 145 AUXILIADORA. 90440-020 Porto Alegre - RS.","phone":"(51) 33431108","category":1,"latitude":-30.01867,"longitude":-51.19647},{"id":43106480,"name":"ESC EST ENS MED PROFESSOR OSCAR PEREIRA","address":"R FRANCISCO MARTINS S\/N, S\/N CASCATA. 91712-150 Porto Alegre - RS.","phone":null,"category":1,"latitude":-30.09066,"longitude":-51.18072},{"id":43106498,"name":"ESC EST ED BAS GOMES CARNEIRO","address":"PCA PAULO DE ARAGAO BOZANO S\/N, S\/N VILA IPIRANGA. 91360-160 Porto Alegre - RS.","phone":"(51) 33407090","category":1,"latitude":-30.02262,"longitude":-51.15333},{"id":43106501,"name":"ESC EST ENS FUN GONCALVES DIAS","address":"R CANDIOTA 145, 145 PASSO DAREIA. 91030-020 Porto Alegre - RS.","phone":"(51) 33412203","category":1,"latitude":"NA","longitude":"NA"},{"id":43106528,"name":"ESC EST ENS FUN DR GUSTAVO ARMBRUST","address":"R PROFESSOR EMILIO KEMP 65, 65 JARDIM ITU SABARA. 91380-380 Porto Alegre - RS.","phone":"(51) 33483847","category":1,"latitude":-30.01039,"longitude":-51.14051},{"id":43106536,"name":"ESC EST ENS FUN HEITOR VILLA LOBOS","address":"ETR DA EXTREMA 2943, 2943 LAMI. 91787-540 Porto Alegre - RS.","phone":"(51) 32586972","category":1,"latitude":"NA","longitude":"NA"},{"id":43106544,"name":"ESC EST ENS FUN HENRIQUE FARJAT","address":"ETR EDGAR PIRES DE CASTRO 3050, 3050 BELEM VELHO. 91788-690 Porto Alegre - RS.","phone":"(51) 32480088","category":1,"latitude":"NA","longitude":"NA"},{"id":43106552,"name":"ESC EST ENS FUN HUMAITA","address":"R RUA SENHOR DO BOM FIM S\/N, S\/N SARANDI. 91140-190 Porto Alegre - RS.","phone":"(51) 33648774","category":1,"latitude":"NA","longitude":"NA"},{"id":43106560,"name":"ESC EST ENS FUN ILDEFONSO GOMES","address":"R LUIZ MANOEL 2, 2 AZENHA. 90040-390 Porto Alegre - RS.","phone":"(51) 32174427","category":1,"latitude":-30.04575,"longitude":-51.21253},{"id":43106587,"name":"ESC EST ENS MED ITALIA","address":"AV PROF PAULA SOARES 1095, 1095 JARDIM ITU SABARA. 91220-450 Porto Alegre - RS.","phone":null,"category":1,"latitude":-30.01966,"longitude":-51.142},{"id":43106595,"name":"COL ESTADUAL JAPAO","address":"R ENRICO CARUSO 444, 444 JARDIM ITU SABARA. 91215-300 Porto Alegre - RS.","phone":"(51) 33345666","category":1,"latitude":-30.03176,"longitude":-51.14194},{"id":43106609,"name":"ESC EST ENS FUN ERICO VERISSIMO","address":"R COMENDADOR EDUARDO SECCO S\/N, S\/N VILA IPE I. 91440-160 Porto Alegre - RS.","phone":null,"category":1,"latitude":"NA","longitude":"NA"},{"id":43106617,"name":"ESC EST ENS FUN JERONIMO DE ALBUQUERQUE","address":"R JUAREZ TAVORA 550, 550 PARTENON. 91520-100 Porto Alegre - RS.","phone":"(51) 33156810","category":1,"latitude":-30.06771,"longitude":-51.17393},{"id":43106625,"name":"ESC EST ENS FUN JERONIMO DE ORNELAS","address":"R SAO MIGUEL 487, 487 CORONEL APARICIO BOR. 91710-330 Porto Alegre - RS.","phone":"(51) 33156737","category":1,"latitude":-30.07479,"longitude":-51.1913},{"id":43106641,"name":"ESC EST ENS FUN PROF EDGAR LUIZ SCHNEIDER","address":"AV ELIAS CIRNE LIMA 100, 100 INTERCAP. 91530-310 Porto Alegre - RS.","phone":null,"category":1,"latitude":-30.06301,"longitude":-51.15938},{"id":43106650,"name":"ESC EST ENS FUN DR HEROPHILO CARVALHO DE AZAMBUJA","address":"R RUA VIUVINHA 277, 277 JARDIM CARVALHO. 91430-817 Porto Alegre - RS.","phone":"(51) 33867155","category":1,"latitude":-30.05513,"longitude":-51.14995},{"id":43106668,"name":"ESC EST ENS FUN PROFESSORA LEOPOLDA BARNEWITZ","address":"R JOAO ALFREDO 443, 443 CIDADE BAIXA. 90050-230 Porto Alegre - RS.","phone":"(51) 32283682","category":1,"latitude":-30.04068,"longitude":-51.22586},{"id":43106676,"name":"ESC EST ENS FUN PROFESSOR LEOPOLDO TIETBOHL","address":"R RIVEIRA 400, 400 PETROPOLIS. 90670-160 Porto Alegre - RS.","phone":"(51) 33310128","category":1,"latitude":-30.04733,"longitude":-51.1886},{"id":43106684,"name":"ESC EST ENS FUN LUCIANA DE ABREU","address":"R RUA GENERAL JACINTO OSORIO 60, 60 SANTANA. 90040-290 Porto Alegre - RS.","phone":null,"category":1,"latitude":-30.04097,"longitude":-51.2119},{"id":43106692,"name":"ESC EST ENS FUN LUIZ GAMA","address":"R RUA HONDURAS 115, 115 LOMBA DO PINHEIRO. 91787-302 Porto Alegre - RS.","phone":"(51) 32461988","category":1,"latitude":-30.1125,"longitude":-51.15335},{"id":43106706,"name":"ESC EST ENS FUN MACHADO DE ASSIS","address":"R XAVIER DA CUNHA 680, 680 NONOAI. 90830-430 Porto Alegre - RS.","phone":"(51) 32662787","category":1,"latitude":-30.092,"longitude":-51.23079},{"id":43106714,"name":"ESC EST ENS FUN MADRE MARIA SELIMA","address":"R TENENTE ARY TARRAGO 130, 130 CEL APARICIO BORGES. 91510-390 Porto Alegre - RS.","phone":null,"category":1,"latitude":-30.07181,"longitude":-51.17807},{"id":43106722,"name":"ESC EST ENS FUN MAJOR MIGUEL JOSE PEREIRA","address":"R JACKSON DE FIGUEIREDO 675, 675 SARANDI. 91120-380 Porto Alegre - RS.","phone":"(51) 33648244","category":1,"latitude":-29.98598,"longitude":-51.12778},{"id":43106749,"name":"ESC EST ENS FUN MARIA ALTINA DE ARAUJO","address":"ETR ESTRADA COSTA GAMA 3501, 3501 HIPICA. 91787-133 Porto Alegre - RS.","phone":"(51) 32642948","category":1,"latitude":-30.13709,"longitude":-51.17321},{"id":43106757,"name":"ESC EST ENS FUN MARIA JOSE MABILDE","address":"R PRESIDENTE VARGAS 129, 129 ARQUIPELAGO. 90090-000 Porto Alegre - RS.","phone":"(51) 32116332","category":1,"latitude":-30.02895,"longitude":-51.25261},{"id":43106765,"name":"ESC EST ENS MED MARIZ E BARROS","address":"AV DEL ELY CORREA PRADO 915, 915 MARIO QUINTANA. 91260-300 Porto Alegre - RS.","phone":null,"category":1,"latitude":-30.03582,"longitude":-51.10683},{"id":43106773,"name":"ESC EST ENS FUN MATIAS DE ALBUQUERQUE","address":"AV JUCA BATISTA 3450, 3450 IPANEMA. 91755-000 Porto Alegre - RS.","phone":"(51) 32647148","category":1,"latitude":-30.15437,"longitude":-51.19983},{"id":43106781,"name":"ESC EST ENS FUN MEDIANEIRA","address":"R GENERAL GOMES CARNEIRO 45, 45 MEDIANEIRA. 90870-310 Porto Alegre - RS.","phone":null,"category":1,"latitude":-30.06416,"longitude":-51.21066},{"id":43106790,"name":"ESC EST ED BAS MONSENHOR LEOPOLDO HOFF","address":"R MOEMA 255, 255 CHACARA DAS PEDRAS. 91330-500 Porto Alegre - RS.","phone":"(51) 33818551","category":1,"latitude":-30.03823,"longitude":-51.16359},{"id":43106803,"name":"ESC EST ENS FUN MONSENHOR ROBERTO LANDELL DE MOURA","address":"R JOSE GOMES 400, 400 TRISTEZA. 91910-280 Porto Alegre - RS.","phone":"(51) 32681021","category":1,"latitude":-30.10794,"longitude":-51.24946},{"id":43106811,"name":"ESC EST ENS FUN MONTE LIBANO","address":"R LEMURIA 10, 10 IPANEMA. 91760-530 Porto Alegre - RS.","phone":"(51) 32469874","category":1,"latitude":-30.12988,"longitude":-51.22735},{"id":43106820,"name":"ESC EST ENS FUN NOSSA SENHORA DA CONCEICAO","address":"AV AVENIDA JOAO ANTONIO SILVEIRA 5070, 5070 LOMBA DO PINHEIRO. 91796-022 Porto Alegre - RS.","phone":null,"category":1,"latitude":"NA","longitude":"NA"},{"id":43106838,"name":"ESC EST ENS FUN PROFESSORA MARIA THEREZA DA SILVEIRA","address":"R FURRIEL LUIZ ANTONIO DE VARGAS 135, 135 MONT SERRAT. 90470-130 Porto Alegre - RS.","phone":"(51) 33307824","category":1,"latitude":-30.02847,"longitude":-51.1828},{"id":43106846,"name":"ESC EST ENS FUN NEHYTA MARTINS RAMOS","address":"AV DO LAMI 1150, 1150 BELEM NOVO. 91782-701 Porto Alegre - RS.","phone":null,"category":1,"latitude":-30.21123,"longitude":-51.16954},{"id":43106854,"name":"ESC EST ENS FUN PROFESSORA AURORA PEIXOTO DE AZEVEDO","address":"R PEDRO DOS SANTOS SA 50 PREDIO, 50 PREDIO. SARANDI. 91120-150 Porto Alegre - RS.","phone":"(51) 33441236","category":1,"latitude":-29.98749,"longitude":-51.13644},{"id":43106862,"name":"ESC EST ENS FUN OLEGARIO MARIANO","address":"R OLINDA 99, 99 FLORESTA. 90240-570 Porto Alegre - RS.","phone":"(51) 32682236","category":1,"latitude":-30.01503,"longitude":-51.20134},{"id":43106870,"name":"ESC EST ENS FUN OSCAR SCHMITT","address":"R DO PESCADOR 690, 690 ARQUIPELAGO. 90090-170 Porto Alegre - RS.","phone":"(51) 32031915","category":1,"latitude":"NA","longitude":"NA"},{"id":43106889,"name":"ESC EST ENS FUN OSORIO DUQUE ESTRADA","address":"R CIDADE DE NATAL 125, 125 TRISTEZA. 91900-040 Porto Alegre - RS.","phone":"(51) 32683593","category":1,"latitude":-30.10149,"longitude":-51.24529},{"id":43106897,"name":"ESC EST ENS FUN OTAVIO MANGABEIRA","address":"R SILVIO SILVEIRA SOARES 2711, 2711 CAMAQUA. 91910-460 Porto Alegre - RS.","phone":"(51) 32427144","category":1,"latitude":-30.10436,"longitude":-51.23346},{"id":43106900,"name":"ESC EST ENS FUN OTHELO ROSA","address":"AV INDEPENDENCIA 1065, 1065 INDEPENDENCIA. 90035-077 Porto Alegre - RS.","phone":"(51) 32222492","category":1,"latitude":-30.02931,"longitude":-51.21037},{"id":43106919,"name":"ESC EST ENS FUN PADRE LEO","address":"R RUA NOSSA SENHORA DE FATIMA 195 PREDIO, 195 PREDIO. RUBEM BERTA. 91250-472 Porto Alegre - RS.","phone":"(51) 33661088","category":1,"latitude":-30.01412,"longitude":-51.09662},{"id":43106927,"name":"ESC EST ENS FUN MARIA CRISTINA CHIKA","address":"ETR JOAO DE OLIVEIRA REMIAO 6505, 6505 LOMBA DO PINHEIRO. 91560-000 Porto Alegre - RS.","phone":"(51) 33198365","category":1,"latitude":-30.12474,"longitude":-51.1043},{"id":43106935,"name":"ESC EST ENS FUN PARAIBA CIEP","address":"R ADAO PINHEIRO DA SILVA 490, 490 ABERTA DOS MORROS. 91751-030 Porto Alegre - RS.","phone":"(51) 32486569","category":1,"latitude":-30.13825,"longitude":-51.21568},{"id":43106943,"name":"COL ESTADUAL PARANA","address":"AV TAQUARI 395, 395 CRISTAL. 90810-180 Porto Alegre - RS.","phone":"(51) 32491222","category":1,"latitude":-30.078,"longitude":-51.24217},{"id":43106951,"name":"ESC EST ENS FUN VICENTE DA FONTOURA","address":"ETR EDGAR PIRES DE CASTRO 5580, 5580 BELEM NOVO. 91785-199 Porto Alegre - RS.","phone":"(51) 32482287","category":1,"latitude":-30.17661,"longitude":-51.14472},{"id":43106960,"name":"ESC EST ENS FUN PAULINA MORESCO","address":"R TOME ANTONIO DE SOUZA 160 PREDIO, 160 PREDIO. ABERTA DOS MORROS. 91750-170 Porto Alegre - RS.","phone":"(51) 32612036","category":1,"latitude":-30.13357,"longitude":-51.19804},{"id":43106978,"name":"ESC EST ENS FUN PADRE THEODORO AMSTAD","address":"R VALENTIM VICENTINI 255, 255 IAPI. 90520-220 Porto Alegre - RS.","phone":"(51) 33416002","category":1,"latitude":-30.01617,"longitude":-51.17752},{"id":43106986,"name":"ESC EST ENS FUN PEDRO AMERICO","address":"ETR CHAPEU DO SOL 1680, 1680 BELEM NOVO. 91787-030 Porto Alegre - RS.","phone":null,"category":1,"latitude":-30.18311,"longitude":-51.16323},{"id":43106994,"name":"ESC EST ENS FUN PEDRO SIRANGELO","address":"AV JOSE CORREA DA SILVA 380, 380 JARDIM DAS PALMEIRAS. 91740-380 Porto Alegre - RS.","phone":null,"category":1,"latitude":-30.10654,"longitude":-51.22427},{"id":43107001,"name":"ESC EST ENS FUN PIAUI","address":"R GREGORIO DA FONSECA 91, 91 NONOAI. 90830-260 Porto Alegre - RS.","phone":"(51) 32662033","category":1,"latitude":-30.08824,"longitude":-51.22351},{"id":43107036,"name":"ESC EST ENS FUN PORTO ALEGRE","address":"R JOAO DALLEGRAVE 130, 130 MORRO SANTANA. 91260-170 Porto Alegre - RS.","phone":"(51) 33877988","category":1,"latitude":-30.03789,"longitude":-51.12552},{"id":43107044,"name":"ESC EST ENS FUN SIMOES LOPES NETO","address":"TRV IRMAO PEDRO S\/N, S\/N TERESOPOLIS. 91720-360 Porto Alegre - RS.","phone":"(51) 33222548","category":1,"latitude":-30.08544,"longitude":-51.20798},{"id":43107052,"name":"ESC EST ENS FUN GENOVEVA DA COSTA BERNARDES","address":"ETR OTAVIANO JOSE PINTO 50, 50 LAMI. 91787-660 Porto Alegre - RS.","phone":"(51) 32596336","category":1,"latitude":-30.24108,"longitude":-51.08015},{"id":43107060,"name":"ESC EST ENS FUN PROFESSOR AFONSO GUERREIRO LIMA","address":"R RUA BANCO INGLES 300, 300 SANTA TEREZA. 90840-600 Porto Alegre - RS.","phone":"(51) 32320122","category":1,"latitude":-30.07187,"longitude":-51.22134},{"id":43107079,"name":"ESC EST ENS MED PROFESSOR ALCIDES CUNHA","address":"R HELIO PIMPAO 52, 52 MORRO SANTANA. 91450-330 Porto Alegre - RS.","phone":"(51) 33861032","category":1,"latitude":-30.03896,"longitude":-51.12339},{"id":43107087,"name":"ESC EST ENS FUN AURELIO REIS","address":"R MONTE ALEGRE 119, 119 JARDIM FLORESTA. 91040-120 Porto Alegre - RS.","phone":null,"category":1,"latitude":-30.00283,"longitude":-51.15659},{"id":43107095,"name":"ESC EST ENS FUN PROF CARLOS RODRIGUES DA SILVA","address":"R GUARACAPA 33, 33 SANTA MARIA GORETTI. 91030-150 Porto Alegre - RS.","phone":"(51) 33419754","category":1,"latitude":-30.00511,"longitude":-51.17367},{"id":43107117,"name":"ESC EST ENS FUN PROFESSOR IVO CORSEUIL","address":"R MARIO ANTUNES DA CUNHA 195, 195 PETROPOLIS. 90690-400 Porto Alegre - RS.","phone":"(51) 33346216","category":1,"latitude":-30.04279,"longitude":-51.17687},{"id":43107125,"name":"ESC EST ENS MED PROFESSOR SARMENTO LEITE","address":"R EUGENIO DU PASQUIER 280, 280 CRISTO REDENTOR. 91040-350 Porto Alegre - RS.","phone":"(51) 33779874","category":1,"latitude":-30.00597,"longitude":-51.16242},{"id":43107133,"name":"ESC EST ENS FUN PROFESSORA VIOLETA MAGALHAES","address":"R ESTRADA VILA MARIA 415, 415 CAVALHADA. 91920-370 Porto Alegre - RS.","phone":"(51) 32410500","category":1,"latitude":-30.11093,"longitude":-51.23243},{"id":43107141,"name":"ESC EST ENS FUN PROFESSORES LANGENDONCK","address":"R JACUNDA 365, 365 GUARUJA. 91770-430 Porto Alegre - RS.","phone":null,"category":1,"latitude":-30.15579,"longitude":-51.22038},{"id":43107150,"name":"ESC EST ENS FUN RAFAEL PINTO BANDEIRA","address":"R CORONEL CLAUDINO 254, 254 CRISTAL. 91910-670 Porto Alegre - RS.","phone":"(51) 32410047","category":1,"latitude":-30.09593,"longitude":-51.24316},{"id":43107168,"name":"ESC EST ENS FUN RIO DE JANEIRO","address":"R GEN LIMA E SILVA 400, 400 CIDADE BAIXA. 90050-100 Porto Alegre - RS.","phone":null,"category":1,"latitude":-30.03681,"longitude":-51.2227},{"id":43107192,"name":"ESC EST ENS FUN WILLIAM RICHARD SCHISLER","address":"R VISCONDE DO HERVAL 970, 970 MENINO DEUS. 90130-150 Porto Alegre - RS.","phone":"(51) 32337511","category":1,"latitude":-30.05359,"longitude":-51.21874},{"id":43107206,"name":"ESC EST ENS FUN SANTA RITA DE CASSIA","address":"R SILVEIRO 1640, 1640 MORRO STA TEREZA. 90850-000 Porto Alegre - RS.","phone":"(51) 32314651","category":1,"latitude":-30.0745,"longitude":-51.23029},{"id":43107214,"name":"ESC EST ENS MED SANTA ROSA","address":"AV AVENIDA BERNARDINO DE OLIVEIRA 665, 665 SANTA ROSA DE LIMA. 91160-300 Porto Alegre - RS.","phone":null,"category":1,"latitude":-29.99646,"longitude":-51.10037},{"id":43107222,"name":"ESC EST ENS FUN SAO CAETANO","address":"ETR SAO CAETANO 1600, 1600 LAMI. 91787-740 Porto Alegre - RS.","phone":"(51) 31266006","category":1,"latitude":"NA","longitude":"NA"},{"id":43107230,"name":"ESC EST ENS FUN SOLIMOES","address":"ETR ESTRADA DAS QUIRINAS S\/N, S\/N LOMBA DO PINHEIRO. 91787-730 Porto Alegre - RS.","phone":"(51) 33152886","category":1,"latitude":"NA","longitude":"NA"},{"id":43107257,"name":"ESC EST ENS FUN TENENTE CORONEL TRAVASSOS ALVES","address":"R CHACARA DOS BOMBEIROS 3, 3 PARTENON. 91520-160 Porto Alegre - RS.","phone":"(51) 33392992","category":1,"latitude":-30.07814,"longitude":-51.1701},{"id":43107265,"name":"ESC EST ENS FUN URUGUAI","address":"PRQ PARQUE MOINHOS DE VENTO 200, 200 MOINHOS DE VENTO. 90440-030 Porto Alegre - RS.","phone":"(51) 33322253","category":1,"latitude":"NA","longitude":"NA"},{"id":43107273,"name":"ESC EST ENS FUN VENEZUELA","address":"AV NITEROI ESQUINA TRAV VIAMAO S\/N, S\/N MEDIANEIRA. 90880-270 Porto Alegre - RS.","phone":"(51) 32231128","category":1,"latitude":"NA","longitude":"NA"},{"id":43107281,"name":"ESC EST ENS FUN VERA CRUZ","address":"R SINF DONA LUIZA ROCCO 155, 155 GLORIA. 90870-050 Porto Alegre - RS.","phone":"(51) 33363043","category":1,"latitude":-30.07359,"longitude":-51.20397},{"id":43107290,"name":"ESC EST ENS FUN ALDO LOCATELLI","address":"R RUA THOMAZ FRANCISCO DE JESUS S\/N, S\/N JARDIM CARVALHO. 91430-750 Porto Alegre - RS.","phone":"(51) 33814599","category":1,"latitude":-30.04887,"longitude":-51.14605},{"id":43107303,"name":"ESC EST ENS FUN DANILO ANTONIO ZAFFARI","address":"R GENERAL MARCOS KRUCHIN 291, 291 FARRAPOS. 90245-250 Porto Alegre - RS.","phone":null,"category":1,"latitude":-29.9858,"longitude":-51.19507},{"id":43107311,"name":"ESC EST ENS FUN ITAMARATI","address":"R FRANCISCO RODOLFO SIMCH 617, 617 SARANDI. 91130-210 Porto Alegre - RS.","phone":"(51) 33441727","category":1,"latitude":-30.00711,"longitude":-51.1296},{"id":43107320,"name":"ESC EST ENS MED JOSE DO PATROCINIO","address":"AV BELIZE 261, 261 RESTINGA VELHA. 91790-080 Porto Alegre - RS.","phone":"(51) 32613697","category":1,"latitude":-30.15785,"longitude":-51.13998},{"id":43107338,"name":"ESC EST ENS FUN SANTA LUZIA","address":"R DELFINO RIET 525, 525 SANTO ANTONIO. 90660-120 Porto Alegre - RS.","phone":"(51) 32192499","category":1,"latitude":-30.06239,"longitude":-51.2013},{"id":43107346,"name":"ESC EST ENS FUN VISCONDE DE PELOTAS","address":"R ARTUR ROCHA 200, 200 MONT SERRAT. 90450-170 Porto Alegre - RS.","phone":"(51) 33321238","category":1,"latitude":-30.02511,"longitude":-51.18854},{"id":43107354,"name":"ESC EST ENS MED VISCONDE DO RIO GRANDE","address":"PCA ARATIBA S\/N, S\/N CAVALHADA. 91740-170 Porto Alegre - RS.","phone":"(51) 32428094","category":1,"latitude":-30.10233,"longitude":-51.22894},{"id":43107362,"name":"COLEGIO MARISTA ASSUNCAO","address":"RUA DOM BOSCO, 103 GLORIA. 90680-580 Porto Alegre - RS.","phone":"(51) 30862100","category":2,"latitude":-30.07521,"longitude":-51.20276},{"id":43107370,"name":"COLEGIO SALESIANO DOM BOSCO","address":"RUA DOUTOR EDUARDO CHARTIER, 360 PASSO DA AREIA. 90520-100 Porto Alegre - RS.","phone":"(51) 33379833","category":2,"latitude":-30.0118,"longitude":-51.1803},{"id":43107389,"name":"COLEGIO VICENTINO SANTA CECILIA","address":"RUA FELIPE DE OLIVEIRA, 448 PETROPOLIS. 90630-000 Porto Alegre - RS.","phone":"(51) 33161000","category":2,"latitude":-30.04304,"longitude":-51.1971},{"id":43107397,"name":"ESC DE EDUC BASICA DON LUIS GUANELLA","address":"AVENIDA BENNO MENTZ, 1560 VILA IPIRANGA. 91370-020 Porto Alegre - RS.","phone":"(51) 33489733","category":2,"latitude":-30.02514,"longitude":-51.14657},{"id":43107400,"name":"ESC DE ENSINO FUNDAMENTAL MAE ADMIRAVEL","address":"PRACA CONEGO MARCELINO, 107 CIDADE BAIXA. 90050-280 Porto Alegre - RS.","phone":"(51) 32218347","category":2,"latitude":-30.0416,"longitude":-51.2269},{"id":43107419,"name":"COLEGIO MAE DE DEUS","address":"RUA DOUTOR MARIO TOTTA, 1232 TRISTEZA. 91920-130 Porto Alegre - RS.","phone":"(51) 32685525","category":2,"latitude":-30.11222,"longitude":-51.24826},{"id":43107427,"name":"ESCOLA FUNDAMENTAL SAO FRANCISCO MENINO DEUS","address":"PRACA MENINO DEUS, 77 MENINO DEUS. 90850-180 Porto Alegre - RS.","phone":"(51) 32331424","category":2,"latitude":-30.06148,"longitude":-51.22352},{"id":43107435,"name":"COLEGIO ROMANO SANTA MARTA","address":"RUA MARCILIO DIAS, 1201 AZENHA. 90130-001 Porto Alegre - RS.","phone":"(51) 32192709","category":2,"latitude":-30.05019,"longitude":-51.21737},{"id":43107443,"name":"ESC DE ENS FUND LA SALLE PAO DOS POBRES","address":"RUA DA REPUBLICA, 801 CIDADE BAIXA. 90050-321 Porto Alegre - RS.","phone":"(51) 32283222","category":2,"latitude":-30.04063,"longitude":-51.22693},{"id":43107451,"name":"INSTITUTO SAO FRANCISCO SANTA FAMILIA","address":"AVENIDA PARA, 833 NAVEGANTES. 90240-591 Porto Alegre - RS.","phone":"(51) 33429797","category":2,"latitude":-30.00939,"longitude":-51.19943},{"id":43107478,"name":"ESC EST ENS FUN DECIO MARTINS COSTA","address":"R DOMINGOS DE ABREU 967, 967 SARANDI. 91120-090 Porto Alegre - RS.","phone":"(51) 33656675","category":1,"latitude":-29.98212,"longitude":-51.13466},{"id":43107486,"name":"ESC EST ENS FUN SAO FRANCISCO DE ASSIS","address":"AV PRINCESA ISABEL 1160, 1160 SANTANA. 90620-000 Porto Alegre - RS.","phone":null,"category":1,"latitude":-30.04408,"longitude":-51.20119},{"id":43107494,"name":"CENTRO DE ENSINO MEDIO PASTOR DOHMS-UNIDADE DE ENSINO HIGIENOPOLIS","address":"RUA AMERICO VESPUCIO, 483 HIGIENOPOLIS. 90550-031 Porto Alegre - RS.","phone":"(51) 33573300","category":2,"latitude":-30.01213,"longitude":-51.18677},{"id":43107508,"name":"EMEF GOV ILDO MENEGHETTI","address":"R JAYME CYRINO MACHADO DE OLIVEIRA, 250 RUBEM BERTA. STA ROSA LIMA. 91160-060 Porto Alegre - RS.","phone":"(51) 33673218","category":1,"latitude":-29.9935218,"longitude":-51.1053264},{"id":43107524,"name":"COL METODISTA AMERICANO","address":"RUA DOUTOR LAURO DE OLIVEIRA, 71 RIO BRANCO. 90420-210 Porto Alegre - RS.","phone":"(51) 33161159","category":2,"latitude":-30.03629,"longitude":-51.20051},{"id":43107559,"name":"INSTITUTO SANTA LUZIA","address":"AVENIDA DA CAVALHADA, 3999 CAVALHADA. 91740-001 Porto Alegre - RS.","phone":"(51) 32491299","category":2,"latitude":-30.112,"longitude":-51.22794},{"id":43107567,"name":"COLEGIO LUTERANO DA PAZ","address":"AVENIDA ALCIDES S SEVERIANO, 100 SARANDI. 91130-500 Porto Alegre - RS.","phone":"(51) 33644908","category":2,"latitude":-29.99585,"longitude":-51.12572},{"id":43107575,"name":"COLEGIO JOAO XXIII","address":"RUA SEPE TIARAJU, 1013 MEDIANEIRA. 90840-360 Porto Alegre - RS.","phone":"(51) 32355000","category":2,"latitude":-30.07623,"longitude":-51.21484},{"id":43107583,"name":"INST EST EDUC GENERAL FLORES DA CUNHA","address":"AV OSVALDO ARANHA 527, 527 BOM FIM. 90420-121 Porto Alegre - RS.","phone":"(51) 33114968","category":1,"latitude":-30.03319,"longitude":-51.21719},{"id":43107605,"name":"COL KENNEDY","address":"AV ALCIDES SEVERIANO, 99 SARANDI. 91130-500 Porto Alegre - RS.","phone":"(51) 33641142","category":2,"latitude":-29.9955,"longitude":-51.12594},{"id":43107613,"name":"INST VICENTE PALLOTTI ESCOLA EDUCACAO INFANTIL ENSINO FUNDAMENTAL E MEDIO","address":"RUA TUPI, 212 PASSO DA AREIA. 91030-520 Porto Alegre - RS.","phone":"(51) 33413055","category":2,"latitude":-30.00964,"longitude":-51.16936},{"id":43107656,"name":"ESCOLA DE EDUCACAO INFANTIL MEU CANTINHO","address":"AVENIDA CLEMENCIANO BARNASQUE, 200 TERESOPOLIS. 91720-260 Porto Alegre - RS.","phone":"(51) 33368542","category":2,"latitude":-30.08583,"longitude":-51.20717},{"id":43107672,"name":"EMEI JP CANTINHO AMIGO","address":"PCA GARIBALDI, 1 S\/N. AZENHA. 90050-020 Porto Alegre - RS.","phone":"(51) 32271906","category":1,"latitude":-30.0444286,"longitude":-51.2194199},{"id":43107680,"name":"EMEI JP CIRANDINHA","address":"RUA VINTE E QUATRO DE OUTUBRO, 211 INDEPENDENCIA. 90510-002 Porto Alegre - RS.","phone":"(51) 33461600","category":1,"latitude":-30.0277365,"longitude":-51.2051754},{"id":43107699,"name":"EMEI JP GIRAFINHA","address":"PCA JAYME TELLES, 1 SANTANA. 90650-100 Porto Alegre - RS.","phone":"(51) 32192589","category":1,"latitude":-30.0520634,"longitude":-51.2050971},{"id":43107702,"name":"EMEI JP MEU AMIGUINHO","address":"R SAO CARLOS, 636 PCA BART DE GUSMAO. FLORESTA. 90220-121 Porto Alegre - RS.","phone":"(51) 32276003","category":1,"latitude":-30.0209067,"longitude":-51.2104383},{"id":43107710,"name":"EMEI JP PASSARINHO DOURADO","address":"AV GUIDO MONDIN, 1 PRACA SAO GERALDO. SAO GERALDO. 90230-260 Porto Alegre - RS.","phone":"(51) 33372537","category":1,"latitude":-30.0114826,"longitude":-51.1960358},{"id":43107729,"name":"EMEI JP PICA-PAU AMARELO","address":"PCA GEN OSORIO, 1 CENTRO HISTORICO. 90010-520 Porto Alegre - RS.","phone":"(51) 32275865","category":1,"latitude":-30.0347851,"longitude":-51.2367028},{"id":43107753,"name":"ESCOLA INFANTIL GATO DE BOTAS E PEQUENO POLEGAR","address":"AVENIDA DELMAR ROCHA BARBOSA, 483 RUBEM BERTA. 91180-490 Porto Alegre - RS.","phone":"(51) 33611090","category":2,"latitude":-30.0109409,"longitude":-51.1359147},{"id":43107800,"name":"COLEGIO ADVENTISTA DO PARTENON","address":"AVENIDA VALADO, 363 CASA. PARTENON. 91510-740 Porto Alegre - RS.","phone":"(51) 33392020","category":2,"latitude":-30.06653,"longitude":-51.17567},{"id":43107826,"name":"ESC EST ENS FUN OSWALDO VERGARA","address":"R GRACIANO CAMOZZATO 101, 101 FARRAPOS. 90250-390 Porto Alegre - RS.","phone":"(51) 33744433","category":1,"latitude":-29.97939,"longitude":-51.19499},{"id":43107842,"name":"EMEF SEN ALBERTO PASQUALINI","address":"R TEN ARIZOLY FAGUNDES, 250 QUARTA UNIDADE. RESTINGA. 91790-520 Porto Alegre - RS.","phone":"(51) 32501648","category":1,"latitude":-30.153136,"longitude":-51.143048},{"id":43107850,"name":"ESC EST ENS MED SENADOR PASQUALINI","address":"AV PADRE CACIQUE 1372, 1372 PRAIA DE BELAS. 90810-240 Porto Alegre - RS.","phone":"(51) 32333402","category":1,"latitude":-30.07112,"longitude":-51.23818},{"id":43107877,"name":"INSTITUTO DE EDUCACAO SAO FRANCISCO","address":"AVENIDA BALTAZAR DE OLIVEIRA GARCIA, 4879 RUBEM BERTA. 91180-001 Porto Alegre - RS.","phone":"(51) 32723800","category":2,"latitude":-30.01256,"longitude":-51.0974},{"id":43107885,"name":"ESC EST ENS FUN TRES DE OUTUBRO","address":"AV WENCESLAU ESCOBAR 2560, 2560 TRISTEZA. 91900-000 Porto Alegre - RS.","phone":"(51) 32681937","category":1,"latitude":-30.11093,"longitude":-51.25397},{"id":43107923,"name":"ESC EST ENS FUN CORONEL APARICIO BORGES","address":"AV CORONEL APARICIO BORGES 2160, 2160 CORONEL APARICIO BOR. 90680-570 Porto Alegre - RS.","phone":null,"category":1,"latitude":-30.06866,"longitude":-51.18813},{"id":43107931,"name":"ESC EST ENS FUN SOUZA LOBO","address":"AV BAHIA 948, 948 SAO GERALDO. 90240-552 Porto Alegre - RS.","phone":"(51) 33423631","category":1,"latitude":-30.01063,"longitude":-51.19985},{"id":43107966,"name":"ESC EST ENS FUN PROFESSOR SYLVIO TORRES","address":"R EROTILDE MACHADO SANTANA SN PREDIO, S\/N PREDIO. AGRONOMIA. 91540-050 Porto Alegre - RS.","phone":null,"category":1,"latitude":-30.0814,"longitude":-51.116},{"id":43107974,"name":"ESCOLA DE ENSINO FUNDAMENTAL SAO FRANCISCO - ZONA SUL","address":"RUA VICTOR SILVA, 186 CAMAQUA. 91910-170 Porto Alegre - RS.","phone":"(51) 32681566","category":2,"latitude":-30.10778,"longitude":-51.24155},{"id":43107982,"name":"C EST DE EN MED RAUL PILLA","address":"R ENG OSCAR DE OLIVEIRA RAMOS 660, 660 RESTINGA NOVA. 91790-050 Porto Alegre - RS.","phone":"(51) 32501364","category":1,"latitude":-30.1482,"longitude":-51.14543},{"id":43107990,"name":"ESC EST ENS MED REPUBLICA ARGENTINA","address":"R BOGOTA 789, 789 JARDIM LINDOIA. 91060-000 Porto Alegre - RS.","phone":"(51) 33476444","category":1,"latitude":-30.0027,"longitude":-51.14859},{"id":43108016,"name":"COL ESTADUAL MARECHAL FLORIANO PEIXOTO","address":"R COMENDADOR CORUJA 315, 315 FLORESTA. 90220-180 Porto Alegre - RS.","phone":"(51) 32090841","category":1,"latitude":-30.02452,"longitude":-51.21334},{"id":43108032,"name":"COL ESTADUAL PRESIDENTE ARTHUR DA COSTA E SILVA","address":"R BADEN POWELL 409, 409 SARANDI. 91110-040 Porto Alegre - RS.","phone":"(51) 33406143","category":1,"latitude":-29.99945,"longitude":-51.13759},{"id":43108040,"name":"INST ESTADUAL RIO BRANCO","address":"AV PROTASIO ALVES 999, 999 SANTA CECILIA. 90410-000 Porto Alegre - RS.","phone":"(51) 33327021","category":1,"latitude":-30.04018,"longitude":-51.19858},{"id":43108059,"name":"ESC EST ENS MED SANTOS DUMONT","address":"R CAETE 328, 328 VILA ASSUNCAO. 91900-180 Porto Alegre - RS.","phone":"(51) 31366003","category":1,"latitude":-30.10203,"longitude":-51.26028},{"id":43108067,"name":"INST EST EDUC PAULO DA GAMA","address":"AV SILVADO 555, 555 PARTENON. 91510-100 Porto Alegre - RS.","phone":null,"category":1,"latitude":-30.06943,"longitude":-51.1849},{"id":43108083,"name":"COL ESTADUAL ODILA GAY DA FONSECA","address":"AV OSVALDO GONCALVES CRUZ 444, 444 IPANEMA. 91760-060 Porto Alegre - RS.","phone":"(51) 32483402","category":1,"latitude":-30.13692,"longitude":-51.22492},{"id":43108091,"name":"COL ESTADUAL DR GLICERIO ALVES","address":"R EUSTAQUIO INACIO DA SILVEIRA 300, 300 BELEM NOVO. 91780-100 Porto Alegre - RS.","phone":"(51) 32591000","category":1,"latitude":-30.20959,"longitude":-51.17679},{"id":43108113,"name":"COL ESTADUAL FLORINDA TUBINO SAMPAIO","address":"AV MONTENEGRO 269, 269 PETROPOLIS. 90460-160 Porto Alegre - RS.","phone":"(51) 33312037","category":1,"latitude":-30.04059,"longitude":-51.18141},{"id":43108130,"name":"COLEGIO ACM CENTRO","address":"RUA WASHINGTON LUIZ, 1050 CENTRO HISTORICO. 90010-460 Porto Alegre - RS.","phone":"(51) 32136000","category":2,"latitude":-30.0374341,"longitude":-51.2296888},{"id":43108148,"name":"BERCARIO CRECHE E RECREACAO CISNE BRANCO LTDA","address":"RUA JOSE DE ALENCAR, 745 MENINO DEUS. 90880-481 Porto Alegre - RS.","phone":"(51) 32334534","category":2,"latitude":-30.060817,"longitude":-51.2243516},{"id":43108164,"name":"COL MARISTA NOSSA SENHORA DO ROSARIO","address":"PRACA DOM SEBASTIAO, 02 INDEPENDENCIA. 90035-080 Porto Alegre - RS.","phone":"(51) 32841200","category":2,"latitude":-30.03035,"longitude":-51.21845},{"id":43108172,"name":"ESC EST ENS FUN PROFESSOR OLINTHO DE OLIVEIRA","address":"R DA REPUBLICA 635, 635 CIDADE BAIXA. 90050-321 Porto Alegre - RS.","phone":"(51) 32283674","category":1,"latitude":-30.03993,"longitude":-51.22559},{"id":43108180,"name":"COL ESTADUAL RUBEN BERTA","address":"AV SATURNINO DE BRITO 1400, 1400 VILA JARDIM. 91320-001 Porto Alegre - RS.","phone":null,"category":1,"latitude":-30.02977,"longitude":-51.1515},{"id":43108202,"name":"COL ESTADUAL FRANCISCO A VIEIRA CALDAS JR","address":"R WALDOMIRO SCHAPKE 11 INTERCAP, 11 INTERCAP. PARTENON. 91530-390 Porto Alegre - RS.","phone":"(51) 33364878","category":1,"latitude":-30.05826,"longitude":-51.15919},{"id":43108210,"name":"ESC EST ENS FUN LEA ROSA CECHINI BRUM","address":"R RUA JOSE ALBANO VOLKMER S\/N, S\/N JARDIM DO SALSO. 91410-180 Porto Alegre - RS.","phone":"(51) 33347415","category":1,"latitude":"NA","longitude":"NA"},{"id":43108229,"name":"ESC EST ENS FUN CIDADE JARDIM","address":"AV FABIO ARAUJO SANTOS 1265, 1265 NONOAI. 91720-390 Porto Alegre - RS.","phone":"(51) 32497546","category":1,"latitude":-30.09432,"longitude":-51.22197},{"id":43108237,"name":"COL ESTADUAL PAULA SOARES","address":"R GAL AUTO 68, 68 CENTRO. 90010-380 Porto Alegre - RS.","phone":"(51) 32129633","category":1,"latitude":-30.03417,"longitude":-51.2314},{"id":43108245,"name":"ESC EST ENS FUN LIONS CLUB POA FARRAPOS","address":"R DONA TEODORA 1156, 1156 HUMAITA. 90240-300 Porto Alegre - RS.","phone":null,"category":1,"latitude":-29.99334,"longitude":-51.19256},{"id":43108253,"name":"CRECHE E BERCARIO GIORDANO BRUNO","address":"AVENIDA JOAO OBINO, 385 PETROPOLIS. 90470-150 Porto Alegre - RS.","phone":"(51) 32223589","category":2,"latitude":-30.03388,"longitude":-51.18095},{"id":43108296,"name":"ESCOLA DE EDUCACAO INFANTIL GENTE MIUDA","address":"TRAVESSA ANGUSTURA, 66 MOINHOS DE VENTO. 90440-030 Porto Alegre - RS.","phone":"(51) 33336820","category":2,"latitude":-30.02799,"longitude":-51.1969},{"id":43108300,"name":"ESC EST ENS FUN HELENA LITWIN SCHNEIDER","address":"R TENENTE ARI TARRAGO 1745, 1745 JARDIM ITU SABARA. 91225-001 Porto Alegre - RS.","phone":null,"category":1,"latitude":-30.02739,"longitude":-51.1319},{"id":43108318,"name":"ESC EST ENS MED BALTAZAR DE OLIVEIRA GARCIA","address":"R SARGENTO SILVIO DELMAR HOLLEMB 69, 69 JARDIM LEOPOLDINA. 91240-120 Porto Alegre - RS.","phone":"(51) 33686368","category":1,"latitude":-30.01821,"longitude":-51.11036},{"id":43108326,"name":"ESC EST ENS FUN LIDIA MOSCHETTI","address":"AV SILVESTRE FELIX RODRIGUES S\/N, S\/N RUBEM BERTA. 91150-020 Porto Alegre - RS.","phone":null,"category":1,"latitude":-30.0079,"longitude":-51.12017},{"id":43108334,"name":"ESC EST ENS FUN TOYAMA","address":"R ACESSO TOYAMA N 01, N 01 JARDIM ITU SABARA. 91215-380 Porto Alegre - RS.","phone":"(51) 33342044","category":1,"latitude":"NA","longitude":"NA"},{"id":43108342,"name":"ESC EST ENS FUN MINISTRO POTY MEDEIROS","address":"R VICENTE CELESTINO 120, 120 RUBEM BERTA. 91180-130 Porto Alegre - RS.","phone":null,"category":1,"latitude":-30.00791,"longitude":-51.09573},{"id":43108350,"name":"ESC EST ENS FUN PONCHO VERDE","address":"AV DOUTOR PETRONIO PORTELLA 1100 PQ ST FE, 1100 PQ ST FE. RUBEM BERTA. 91180-520 Porto Alegre - RS.","phone":"(51) 33669625","category":1,"latitude":-30.00448,"longitude":-51.11028},{"id":43108369,"name":"EMEI JP PATINHO FEIO","address":"AV BRASIL, 593 SAO GERALDO. 90230-061 Porto Alegre - RS.","phone":"(51) 33742994","category":1,"latitude":-30.005076,"longitude":-51.2014856},{"id":43108377,"name":"COLEGIO LUTERANO SAO PAULO","address":"RUA TARCILA MORAES DUTRA, 799 RUBEM BERTA. 91170-170 Porto Alegre - RS.","phone":"(51) 33674802","category":2,"latitude":-29.99851,"longitude":-51.09338},{"id":43108385,"name":"ESC EST ENS FUN PROFESSORA MARIETA DA CUNHA SILVA","address":"R PAULO MADUREIRA COELHO 165, 165 VILA PETROPOLIS. 91310-040 Porto Alegre - RS.","phone":"(51) 33670757","category":1,"latitude":-30.04011,"longitude":-51.13477},{"id":43108393,"name":"ESC EST ENS FUN BRIGADEIRO EDUARDO GOMES","address":"AV JAIME VIGNOLI 320, 320 ANCHIETA. 90200-110 Porto Alegre - RS.","phone":null,"category":1,"latitude":-29.97687,"longitude":-51.17455},{"id":43108423,"name":"COLEGIO PROVINCIA DE SAO PEDRO","address":"AVENIDA MARECHAL ANDREA, 345 BOA VISTA. 91340-400 Porto Alegre - RS.","phone":"(51) 33282810","category":2,"latitude":-30.02493,"longitude":-51.17293},{"id":43108466,"name":"ESCOLA DE ED INFANTIL TARTARUGUINHA VERDE","address":"RUA URUGUAIANA, 185 MENINO DEUS. 90110-330 Porto Alegre - RS.","phone":"(51) 32334200","category":2,"latitude":-30.05612,"longitude":-51.22531},{"id":43108474,"name":"ESC EST ENS FUN VINTE DE SETEMBRO","address":"R MARUJAIBA 8, 8 RUBEM BERTA NOVA G. 91170-340 Porto Alegre - RS.","phone":"(51) 33383292","category":1,"latitude":-29.99715,"longitude":-51.09129},{"id":43108482,"name":"COL ESTADUAL PROFESSOR OTAVIO DE SOUZA","address":"R AFONSO RODRIGUES 100, 100 JARDIM BOTANICO. 90690-170 Porto Alegre - RS.","phone":"(51) 33396364","category":1,"latitude":-30.05282,"longitude":-51.18626},{"id":43108490,"name":"ESC EST ENS FUN BENTO GONCALVES","address":"R JORGE FURTADO 47, 47 RUBEM BERTA. 91160-680 Porto Alegre - RS.","phone":"(51) 33671442","category":1,"latitude":-30.00142,"longitude":-51.10189},{"id":43108539,"name":"ESCOLA DE EDUCACAO INFANTIL PATOTINHA","address":"RUA CATAMARCA, 93 E 123. JARDIM LINDOIA. 91050-170 Porto Alegre - RS.","phone":"(51) 33474528","category":2,"latitude":-30.00848,"longitude":-51.15013},{"id":43108547,"name":"ESC EST ENS FUN DAVID CANABARRO","address":"R LIDIA MOSCHETTI 200, 200 JARDIM LEOPOLDINA. 91240-100 Porto Alegre - RS.","phone":"(51) 33687094","category":1,"latitude":-30.01707,"longitude":-51.1168},{"id":43108563,"name":"EMEF PRES JOAO BELCHIOR MARQUES GOULART","address":"R JOAO LUIZ PUFAL, 100 VILA ELIZABETH. SARANDI. 91120-530 Porto Alegre - RS.","phone":"(51) 33644223","category":1,"latitude":-29.9792095,"longitude":-51.1259201},{"id":43108571,"name":"EMEF GRANDE ORIENTE DO RGS","address":"R WOLFRAM METZLER, 600 RUBEM BERTA. 91250-320 Porto Alegre - RS.","phone":"(51) 33661602","category":1,"latitude":-30.024567,"longitude":-51.1034918},{"id":43108580,"name":"5191 IEI CASA DA CRIANCA N SRA AUXILIADORA","address":"RUA FELIPE NERI, 78 AUXILIADORA. 90440-150 Porto Alegre - RS.","phone":"(51) 33329521","category":2,"latitude":-30.0231757,"longitude":-51.1950563},{"id":43108610,"name":"ESCOLA DE EDUCACAO INFANTIL PE DE FEIJAO","address":"AVENIDA BAGE, 380 PETROPOLIS. 90460-080 Porto Alegre - RS.","phone":"(51) 35177137","category":2,"latitude":-30.04064,"longitude":-51.18584},{"id":43108709,"name":"COL ESTADUAL ELPIDIO FERREIRA PAES","address":"R INHANDUI 432, 432 CRISTAL. 90820-170 Porto Alegre - RS.","phone":null,"category":1,"latitude":-30.08784,"longitude":-51.23782},{"id":43108717,"name":"COL ESTADUAL CONEGO PAULO DE NADAL","address":"AV CAVALHADA 4357, 4357 CAVALHADA. 91740-001 Porto Alegre - RS.","phone":"(51) 32486533","category":1,"latitude":-30.11489,"longitude":-51.22702},{"id":43108725,"name":"ESC EST ENS FUN ONOFRE PIRES","address":"BC BECO DO DAVID 269, 269 LOMBA DO PINHEIRO. 91550-160 Porto Alegre - RS.","phone":"(51) 33195333","category":1,"latitude":-30.0847,"longitude":-51.13521},{"id":43108733,"name":"COL ESTADUAL CORONEL AFONSO EMILIO MASSOT","address":"R JOSE HONORATO SANTOS 101, 101 AZENHA. 90050-040 Porto Alegre - RS.","phone":null,"category":1,"latitude":-30.04639,"longitude":-51.21673},{"id":43108741,"name":"COL ESTADUAL GENERAL ALVARO ALVES DA SILVA BRAGA","address":"R MARIANO DE MATOS 300, 300 MEDIANEIRA. 90880-250 Porto Alegre - RS.","phone":"(51) 32329138","category":1,"latitude":-30.06306,"longitude":-51.21745},{"id":43108750,"name":"ESC EST ENS MED OTAVIO ROCHA","address":"R GUILHERME ALVES 1900, 1900 PARTENON. 90680-000 Porto Alegre - RS.","phone":"(51) 33360112","category":1,"latitude":-30.06337,"longitude":-51.19332},{"id":43108768,"name":"ESC EST ED BAS PRESIDENTE ROOSEVELT","address":"R BOTAFOGO 396, 396 MENINO DEUS. 90150-050 Porto Alegre - RS.","phone":"(51) 32333120","category":1,"latitude":-30.05398,"longitude":-51.22645},{"id":43108784,"name":"ESC EST ENS FUN PAUL HARRIS","address":"R CRUZEIRO DO SUL 2702, 2702 CRISTAL. 90840-000 Porto Alegre - RS.","phone":"(51) 32493799","category":1,"latitude":-30.08436,"longitude":-51.22966},{"id":43108792,"name":"ESC EST ENS FUN PROFESSORA THEREZA NORONHA CARVALHO","address":"R MAGNOLIA 120, 120 LOMBA DO PINHEIRO. 91560-180 Porto Alegre - RS.","phone":"(51) 33193419","category":1,"latitude":-30.11542,"longitude":-51.11465},{"id":43108806,"name":"ESC EST ENS FUN TANCREDO NEVES","address":"AV AVENIDA VEREADOR ROBERTO LANDE 364, 364 ABERTA DOS MORROS. 91751-750 Porto Alegre - RS.","phone":null,"category":1,"latitude":"NA","longitude":"NA"},{"id":43108822,"name":"PATO ESCOLA DE EDUCACAO INFANTIL LTDA","address":"RUA DONA AUGUSTA, 60 MENINO DEUS. 90850-130 Porto Alegre - RS.","phone":"(51) 32334232","category":2,"latitude":-30.0606924,"longitude":-51.2261105},{"id":43108830,"name":"ESC EST ENS FUN ANITA GARIBALDI","address":"R SAO JOSE DO NORTE S\/N, S\/N BELEM VELHO. 91712-160 Porto Alegre - RS.","phone":"(51) 33545167","category":1,"latitude":-30.10402,"longitude":-51.1709},{"id":43108849,"name":"EEF LA SALLE ESMERALDA","address":"RUA MARIO TAVARES DE SOUZA, 400 AGRONOMIA. 91540-150 Porto Alegre - RS.","phone":"(51) 33196344","category":2,"latitude":-30.08963,"longitude":-51.12541},{"id":43108865,"name":"5048 IEI HELOISA BECKER","address":"R SAO MANOEL, 1909 RIO BRANCO. 90620-110 Porto Alegre - RS.","phone":"(51) 32233714","category":2,"latitude":-30.0500031,"longitude":-51.2006183},{"id":43108873,"name":"ASSOC BENEFIC SANTA ZITA DE LUCCA","address":"RUA BATISTA XAVIER, 600 PARTENON. 90680-120 Porto Alegre - RS.","phone":"(51) 33361880","category":2,"latitude":-30.06628,"longitude":-51.19248},{"id":43108881,"name":"ESC EDUC INF TIO CHICO","address":"RUA SILVADO, 456 CORONEL APARICIO BORGES. 91510-100 Porto Alegre - RS.","phone":"(51) 984376924","category":1,"latitude":-30.06908,"longitude":-51.18453},{"id":43108911,"name":"COL ESTADUAL ENG ILDO MENEGHETTI","address":"R EUGENIO RODRIGUES 4919, 4919 RESTINGA NOVA. 91790-060 Porto Alegre - RS.","phone":"(51) 32502241","category":1,"latitude":"NA","longitude":"NA"},{"id":43108938,"name":"ESCOLA INFANTIL MELADINHO","address":"RUA SALDANHA MARINHO, 172 E 166. MENINO DEUS. 90160-240 Porto Alegre - RS.","phone":"(51) 32314040","category":2,"latitude":-30.05763,"longitude":-51.22091},{"id":43108946,"name":"EEI PIAZITO","address":"AVENIDA PRAIA DE BELAS, 1948 PRAIA DE BELAS. 90110-000 Porto Alegre - RS.","phone":"(51) 32321051","category":2,"latitude":-30.0564,"longitude":-51.22819},{"id":43108954,"name":"ESC EST ENS FUN LUIZ DE AZAMBUJA SOARES","address":"R 1 DE SETEMBRO 480, 480 PARTENON. 91520-540 Porto Alegre - RS.","phone":null,"category":1,"latitude":-30.06647,"longitude":-51.16348},{"id":43108970,"name":"ESC EST ENS FUN MAURICIO SIROTSKY SOBRINHO","address":"R PADRE CALDAS 59, 59 PARTENON. 90620-280 Porto Alegre - RS.","phone":null,"category":1,"latitude":-30.05763,"longitude":-51.19272},{"id":43109047,"name":"EEI TAGARELA","address":"RUA AFONSO PENA, 115 AZENHA. 90160-020 Porto Alegre - RS.","phone":"(51) 32230421","category":2,"latitude":-30.05666,"longitude":-51.21688},{"id":43109055,"name":"EMEF PROF JUDITH MACEDO DE ARAUJO","address":"RUA SAUL CONSTANTINO VL SJ COMUNITARIA, 100 VILA SAO JOSE. 91520-716 Porto Alegre - RS.","phone":"(51) 33851308","category":1,"latitude":-30.0760278,"longitude":-51.1627706},{"id":43109063,"name":"EMEF LEOCADIA FELIZARDO PRESTES","address":"R ROMEU DE VASCONCELLOS ROSA, 10 LOTEAMENTO DO SALSO. VILA NOVA. 91751-370 Porto Alegre - RS.","phone":"(51) 32464648","category":1,"latitude":-30.1293679,"longitude":-51.2163347},{"id":43109071,"name":"EMEF PROF GILBERTO JORGE GONCALVES DA SILVA","address":"R MORRO ALTO, 433 IPANEMA. 91751-650 Porto Alegre - RS.","phone":"(51) 32464603","category":1,"latitude":-30.1370495,"longitude":-51.2111718},{"id":43109080,"name":"EMEF VER CARLOS PESSOA DE BRUM","address":"R ABOLICAO, 1 RESTINGA VELHA. RESTINGA. 91790-130 Porto Alegre - RS.","phone":"(51) 32501698","category":1,"latitude":-30.1566083,"longitude":-51.1359911},{"id":43109098,"name":"EMEF PROF LARRY JOSE RIBEIRO ALVES","address":"AV ECON NILO WULFF, 1000 S\/N. RESTINGA. 91790-000 Porto Alegre - RS.","phone":"(51) 32501656","category":1,"latitude":-30.150945,"longitude":-51.1441432},{"id":43109101,"name":"EMEF VER MARTIM ARANHA","address":"R CONEGO PAULO ISIDORO DE NADAL, 1 SANTA TERESA. SANTA TEREZA. 90830-540 Porto Alegre - RS.","phone":"(51) 32666228","category":1,"latitude":-30.0854815,"longitude":-51.228132},{"id":43109110,"name":"ESC EST ENS FUN VILA CRUZEIRO DO SUL","address":"AV CAPIVARI 2020, 2020 CRISTAL. 90810-070 Porto Alegre - RS.","phone":"(51) 32661405","category":1,"latitude":-30.08163,"longitude":-51.23152},{"id":43109128,"name":"EMEF DEP MARCIRIO GOULART LOUREIRO","address":"RUA SAIBREIRA, 1 CORONEL APARICIO BOR. 91510-350 Porto Alegre - RS.","phone":"(51) 33156069","category":1,"latitude":-30.0765669,"longitude":-51.173391},{"id":43109136,"name":"ESCOLA PANAMERICANA EDUC BASICA","address":"AVENIDA JOAO OBINO, 110 PETROPOLIS. 90470-150 Porto Alegre - RS.","phone":"(51) 33345866","category":2,"latitude":-30.0360081,"longitude":-51.1825302},{"id":43109144,"name":"EMEF LIDOVINO FANTON","address":"R MANOEL FARIA DA ROSA PRIMO, 940 RESTINGA VELHA. RESTINGA. 91790-770 Porto Alegre - RS.","phone":"(51) 32501702","category":1,"latitude":-30.1614086,"longitude":-51.1435999},{"id":43109152,"name":"COLEGIO MURIALDO","address":"RUA VIDAL DE NEGREIROS, 417 SAO JOSE. 91520-480 Porto Alegre - RS.","phone":"(51) 33365898","category":2,"latitude":-30.06515,"longitude":-51.16868},{"id":43109179,"name":"ESC EST ENS FUN JOSE GARIBALDI","address":"R DR CAIO BRANDAO DE MELLO 300, 300 PARQUE HUMAITA. 90250-110 Porto Alegre - RS.","phone":"(51) 33251327","category":1,"latitude":-29.98,"longitude":-51.18791},{"id":43109195,"name":"EMEF PROF ANA IRIS DO AMARAL","address":"AV MARIO MENEGHETTI, 1000 MORRO SANTANA. 91260-190 Porto Alegre - RS.","phone":"(51) 33862690","category":1,"latitude":-30.0317282,"longitude":-51.1253145},{"id":43109209,"name":"EMEF LAURO RODRIGUES","address":"R DR MARINO ABRAHAO, 240 PASSO DAS PEDRAS. 91230-260 Porto Alegre - RS.","phone":"(51) 33481132","category":1,"latitude":-30.0178389,"longitude":-51.1234314},{"id":43109217,"name":"EMEF JOAO ANTONIO SATTE","address":"AV GAMAL ABDEL NASSER, 500 RUBEM BERTA. 91170-001 Porto Alegre - RS.","phone":"(51) 33675453","category":1,"latitude":-30.0001303,"longitude":-51.0929043},{"id":43109225,"name":"EMEF DEP VICTOR ISSLER","address":"R DEZENOVE DE FEVEREIRO, 330 PROTASIO ALVES. MARIO QUINTANA. 91270-450 Porto Alegre - RS.","phone":"(51) 33862097","category":1,"latitude":-30.0355816,"longitude":-51.1162944},{"id":43109233,"name":"EMEF GABRIEL OBINO","address":"AV ENG LUDOLFO BOEHL, 1402 GLORIA. CASCATA. 91720-150 Porto Alegre - RS.","phone":"(51) 33155928","category":1,"latitude":-30.0841445,"longitude":-51.2003331},{"id":43109241,"name":"ESC EST ENS FUN NA VILA JARDIM RENASCENCA","address":"AV ARROIO DOS PADRES 250, 250 CASCATA. 91712-390 Porto Alegre - RS.","phone":"(51) 33182611","category":1,"latitude":-30.09812,"longitude":-51.19044},{"id":43109250,"name":"ESC EST ENS FUN JARDIM VILA NOVA","address":"R FERNANDO PESSOA 380, 380 VILA NOVA. 91750-340 Porto Alegre - RS.","phone":"(51) 32487919","category":1,"latitude":-30.127,"longitude":-51.2091},{"id":43109268,"name":"ESC EST ENS FUN MINISTRO SALGADO FILHO","address":"R JOSE BENTO CORREA 100, 100 JARDIM YPU. 91450-030 Porto Alegre - RS.","phone":"(51) 33864407","category":1,"latitude":-30.04762,"longitude":-51.13573},{"id":43109276,"name":"EEF AMIGOS DO VERDE","address":"RUA HONORIO SILVEIRA DIAS, 1675 HIGIENOPOLIS. 90540-070 Porto Alegre - RS.","phone":"(51) 33377630","category":2,"latitude":-30.01743,"longitude":-51.1854},{"id":43109284,"name":"CENTRO DE ENSINO MEDIO PASTOR DOHMS- UNIDADE DE ENSINO ZONA SUL","address":"AVENIDA ARNALDO BOHRER, 253 TERESOPOLIS. 91720-130 Porto Alegre - RS.","phone":"(51) 32413100","category":2,"latitude":-30.08148,"longitude":-51.2058},{"id":43109330,"name":"COL MONTEIRO LOBATO - ESC EDUC BASICA","address":"RUA SALOMAO DUBIN, 200 BOA VISTA. 91340-450 Porto Alegre - RS.","phone":"(51) 33285035","category":2,"latitude":-30.02415,"longitude":-51.17246},{"id":43109357,"name":"ESC EST ENS FUN AYRTON SENNA DA SILVA","address":"R DR MALHEIROS 60, 60 SANTO ANTONIO. 90640-050 Porto Alegre - RS.","phone":"(51) 32237269","category":1,"latitude":-30.06199,"longitude":-51.20559},{"id":43109373,"name":"CENTRO DE ENSINO FUNDAMENTAL PROJETO","address":"RUA CORONEL PAULINO TEIXEIRA, 394 RIO BRANCO. 90420-160 Porto Alegre - RS.","phone":"(51) 33334154","category":2,"latitude":-30.03768,"longitude":-51.20303},{"id":43114946,"name":"ESCOLA DE ENSINO FUNDAMENTAL LUMIAR","address":"RUA DOUTOR FREIRE ALEMAO, 366 MONT SERRAT. 90450-060 Porto Alegre - RS.","phone":"(51) 30930070","category":2,"latitude":"NA","longitude":"NA"},{"id":43141790,"name":"EMEI SANTO EXPEDITO","address":"R SANTO EXPEDITO, 0 RUBEM BERTA. 91180-265 Porto Alegre - RS.","phone":"(51) 33656802","category":1,"latitude":-30.0074714,"longitude":-51.1002986},{"id":43141803,"name":"EEI MAPLE BEAR","address":"RUA LUZITANA, 597 HIGIENOPOLIS. 90520-080 Porto Alegre - RS.","phone":"(51) 33772006","category":2,"latitude":-30.0136439,"longitude":-51.1843336},{"id":43142141,"name":"EEI SINERGIA","address":"RUA DOUTOR NEY DE ALMEIDA BRITO, 85 JARDIM LINDOIA. 91050-220 Porto Alegre - RS.","phone":"(51) 33575556","category":2,"latitude":"NA","longitude":"NA"},{"id":43142249,"name":"EEI TURMINHA DA JU","address":"RUA BEZERRA DE MENEZES, 160 LOMBA DO PINHEIRO. 91550-030 Porto Alegre - RS.","phone":"(51) 33063158","category":2,"latitude":"NA","longitude":"NA"},{"id":43142265,"name":"EEI INTEGRAR","address":"ESTRADA RETIRO DA PONTA GROSSA, 44 PONTA GROSSA. 91780-590 Porto Alegre - RS.","phone":"(51) 33111892","category":2,"latitude":"NA","longitude":"NA"},{"id":43142273,"name":"EEI HAPPY KIDS","address":"AVENIDA BENNO MENTZ, 441 VILA IPIRANGA. 91370-020 Porto Alegre - RS.","phone":"(51) 33779328","category":2,"latitude":"NA","longitude":"NA"},{"id":43142346,"name":"EEI AMAR E EDUCAR","address":"RUA GERMANO BONOW FILHO, 124 ABERTA DOS MORROS. 91787-192 Porto Alegre - RS.","phone":"(51) 33912207","category":2,"latitude":"NA","longitude":"NA"},{"id":43142362,"name":"5244 EEI NOSSA SENHORA DAS GRACAS","address":"RUA 2A ESTRADA OTAVIANO JOSE PINTO, 21 LAMI. 91787-564 Porto Alegre - RS.","phone":"(51) 32581374","category":2,"latitude":-30.2245808,"longitude":-51.0694994},{"id":43142400,"name":"EEI CONSTRUINDO O AMANHA","address":"RUA RODRIGUES DA FONSECA, 1820 VILA NOVA. 91788-610 Porto Alegre - RS.","phone":"(51) 32489153","category":2,"latitude":"NA","longitude":"NA"},{"id":43142435,"name":"ESCOLA DE ENSINO FUNDAMENTAL ZONA SUL EIRELI","address":"AVENIDA WENCESLAU ESCOBAR, 1426 CRISTAL. 91900-000 Porto Alegre - RS.","phone":"(51) 35172951","category":2,"latitude":"NA","longitude":"NA"},{"id":43142451,"name":"EEI MUNDO ENCANTADO","address":"RUA RODOLFO BREYER, 119 BELEM NOVO. 91780-350 Porto Alegre - RS.","phone":null,"category":2,"latitude":"NA","longitude":"NA"},{"id":43142478,"name":"5234 EEI JARDIM DE OXUM","address":"AV DR JOAO DENTICE, 1045 JARDIM PARAISO. RESTINGA. 91790-090 Porto Alegre - RS.","phone":"(51) 31918838","category":2,"latitude":-30.1646389,"longitude":-51.1391156},{"id":43142532,"name":"EEI A CASINHA DA VOVO","address":"AVENIDA LUIZ MOSCHETTI, 340 VILA JOAO PESSOA. 91510-590 Porto Alegre - RS.","phone":"(51) 33157255","category":2,"latitude":"NA","longitude":"NA"},{"id":43142591,"name":"EEI PEDACINHO DO CEU","address":"RUA JOSE CARLOS BRAGA, 157 MARIO QUINTANA. 91270-830 Porto Alegre - RS.","phone":"(51) 33343634","category":2,"latitude":"NA","longitude":"NA"},{"id":43142656,"name":"EEF CANDEIA","address":"AVENIDA ENGENHEIRO ALFREDO CORREA DAUDT, 290 BOA VISTA. 90480-120 Porto Alegre - RS.","phone":"(51) 40616416","category":2,"latitude":"NA","longitude":"NA"},{"id":43142672,"name":"5242 IEI MARIA DE NAZARE III - IEIMAN","address":"R BEZERRA DE MENEZES, 410 PASSO DA AREIA. 91350-130 Porto Alegre - RS.","phone":"(51) 33421924","category":2,"latitude":-30.0156205,"longitude":-51.1691659},{"id":43148549,"name":"ESCOLA DE EDUCACAO INFANTIL CONSTRUIR - ZONA SUL","address":"RUA JOSE ALVES DE CASTRO, 40 VILA NOVA. 91750-090 Porto Alegre - RS.","phone":"(51) 32375364","category":2,"latitude":"NA","longitude":"NA"},{"id":43148565,"name":"ESCOLA DE EDUCACAO INFANTIL AMIGOS DO VERDE","address":"AVENIDA CORONEL LUCAS DE OLIVEIRA, 2609 PETROPOLIS. 90460-001 Porto Alegre - RS.","phone":"(51) 39070400","category":2,"latitude":"NA","longitude":"NA"},{"id":43148581,"name":"ESCOLA DE EDUCACAO INFANTIL BOLINHA DE CRISTAL","address":"RUA SILVESTRE SAUTER, 38 ABERTA DOS MORROS. 91787-217 Porto Alegre - RS.","phone":"(51) 30853530","category":2,"latitude":"NA","longitude":"NA"},